City_ID,City,Lat,Lng,Max Temp,Humidity,Cloudiness,Wind Speed,Country,Date
0,puerto ayora,-0.7393,-90.3518,30.98,88,100,2.24,EC,2023-04-03 19:57:21
1,arraial do cabo,-22.9661,-42.0278,26.98,61,40,3.6,BR,2023-04-03 19:57:35
2,comodoro rivadavia,-45.8667,-67.5,20.92,28,0,9.26,AR,2023-04-03 19:58:08
3,ribeira grande,38.5167,-28.7,15.43,72,40,5.66,PT,2023-04-03 19:57:22
4,rena,61.1348,11.3641,-1.86,98,100,0.93,NO,2023-04-03 20:00:34
5,east london,-33.0153,27.9116,19.37,69,46,8.23,ZA,2023-04-03 19:57:22
6,carnarvon,-24.8667,113.6333,23.95,75,7,6.45,AU,2023-04-03 19:57:22
7,epe,6.5841,3.9834,26.13,85,100,2.93,NG,2023-04-03 20:00:34
8,vaini,-21.2,-175.2,25.09,83,20,3.09,TO,2023-04-03 19:57:19
9,lata,40.1629,-8.3327,16.07,80,100,1.91,PT,2023-04-03 19:53:57
10,pisco,-13.7,-76.2167,28.03,69,0,9.26,PE,2023-04-03 19:57:30
11,locri,38.2414,16.2623,11.3,89,93,2.7,IT,2023-04-03 20:00:35
12,saint anthony,45.0205,-93.218,6.67,62,100,3.75,US,2023-04-03 20:00:09
13,jamestown,42.097,-79.2353,17.8,42,0,7.2,US,2023-04-03 19:57:31
14,cidreira,-30.1811,-50.2056,23.35,68,35,5.79,BR,2023-04-03 19:57:52
15,hilo,19.7297,-155.09,25.16,80,100,3.58,US,2023-04-03 19:57:14
16,tasiilaq,65.6145,-37.6368,-3.23,87,100,1.67,GL,2023-04-03 19:57:23
17,elizabeth city,36.2946,-76.2511,22.23,47,0,3.6,US,2023-04-03 20:00:40
18,punta arenas,-53.15,-70.9167,19.06,32,75,10.8,CL,2023-04-03 19:56:43
19,mahibadhoo,3.7833,72.9667,27.65,72,15,1.94,MV,2023-04-03 20:00:41
20,dubova,44.6167,22.2667,9.87,91,100,4.34,RO,2023-04-03 20:00:41
21,chokurdakh,70.6333,147.9167,-14.81,96,97,4.52,RU,2023-04-03 19:57:21
22,avera,33.194,-82.5271,18.73,79,100,3.14,US,2023-04-03 20:00:42
23,banjar,-8.19,114.9675,24.47,90,100,1.36,ID,2023-04-03 19:59:00
24,flin flon,54.7682,-101.865,-10.09,44,20,2.57,CA,2023-04-03 19:58:39
25,rikitea,-23.1203,-134.9692,26.29,83,85,6.37,PF,2023-04-03 19:57:19
26,new norfolk,-42.7826,147.0587,11.51,76,100,1.26,AU,2023-04-03 19:57:44
27,castro,-24.7911,-50.0119,22.91,65,1,0.96,BR,2023-04-03 19:57:50
28,necochea,-38.5473,-58.7368,20.89,57,1,4.73,AR,2023-04-03 20:00:18
29,panormos,35.4182,24.6909,16.68,76,0,8.59,GR,2023-04-03 20:00:43
30,westport,41.1415,-73.3579,15.71,48,0,3.13,US,2023-04-03 20:00:09
31,manga,11.6636,-1.0731,33.31,11,65,3.46,BF,2023-04-03 20:00:43
32,esperance,-33.8667,121.9,18.67,85,98,2.64,AU,2023-04-03 19:57:53
33,mataura,-46.1927,168.8643,14.71,86,89,0.95,NZ,2023-04-03 19:57:21
34,georgetown,5.4112,100.3354,24.97,94,20,0.0,MY,2023-04-03 19:57:10
35,panjab,34.388,67.0233,-5.33,79,3,1.03,AF,2023-04-03 20:00:45
36,robertsonpet,12.9667,78.2833,23.13,74,18,1.43,IN,2023-04-03 19:57:09
37,qaqortoq,60.7167,-46.0333,2.56,84,100,2.48,GL,2023-04-03 19:59:45
38,coihaique,-45.5752,-72.0662,15.34,55,75,2.06,CL,2023-04-03 19:57:32
39,saint pete beach,27.7253,-82.7412,32.35,65,0,5.66,US,2023-04-03 19:59:18
40,ushuaia,-54.8,-68.3,17.81,36,20,6.17,AR,2023-04-03 19:55:52
41,gamba,-2.65,10.0,25.48,85,100,2.29,GA,2023-04-03 20:00:46
42,faratsiho,-19.4,46.95,13.84,94,22,1.77,MG,2023-04-03 20:00:46
43,bethel,41.3712,-73.414,15.36,42,0,5.66,US,2023-04-03 19:54:46
44,itarema,-2.9248,-39.9167,27.53,70,42,2.73,BR,2023-04-03 20:00:47
45,bluff,-46.6,168.3333,14.89,76,89,6.21,NZ,2023-04-03 19:57:19
46,thompson,55.7435,-97.8558,-11.91,52,0,1.03,CA,2023-04-03 19:57:42
47,kalmunai,7.4167,81.8167,24.82,86,0,2.36,LK,2023-04-03 20:00:47
48,plettenberg bay,-34.0527,23.3716,14.75,92,86,2.0,ZA,2023-04-03 20:00:48
49,kapaa,22.0752,-159.319,24.18,85,100,4.63,US,2023-04-03 19:52:47
50,tuktoyaktuk,69.4541,-133.0374,-20.0,71,75,1.54,CA,2023-04-03 19:57:15
51,saint-philippe,-21.3585,55.7679,23.77,82,100,4.6,RE,2023-04-03 19:57:51
52,bambous virieux,-20.3428,57.7575,26.23,83,40,2.57,MU,2023-04-03 19:57:36
53,torbay,47.6666,-52.7314,0.88,75,75,13.38,CA,2023-04-03 19:57:45
54,provideniya,64.3833,-173.3,-12.8,92,89,3.47,RU,2023-04-03 19:57:22
55,caravelas,-17.7125,-39.2481,24.54,83,100,4.38,BR,2023-04-03 19:57:20
56,cabo san lucas,22.8909,-109.9124,28.67,49,100,6.1,MX,2023-04-03 19:57:41
57,novikovo,51.1537,37.8879,8.7,85,100,3.18,RU,2023-04-03 20:00:50
58,mar del plata,-38.0023,-57.5575,19.97,73,75,3.09,AR,2023-04-03 19:53:33
59,basoko,1.2391,23.616,22.08,95,100,1.12,CD,2023-04-03 20:00:50
60,sorong,-0.8833,131.25,26.31,82,100,3.26,ID,2023-04-03 20:00:51
61,marawi,7.9986,124.2928,19.55,96,44,0.43,PH,2023-04-03 19:59:42
62,college,64.8569,-147.8028,-2.74,77,0,4.12,US,2023-04-03 20:00:52
63,constitucion,-35.3333,-72.4167,19.17,55,100,7.13,CL,2023-04-03 19:58:27
64,dongli,23.5656,116.8194,17.99,94,100,0.0,CN,2023-04-03 20:00:52
65,lethem,3.3803,-59.7968,37.21,23,47,5.69,GY,2023-04-03 20:00:52
66,vardo,70.3705,31.1107,-2.01,74,100,11.83,NO,2023-04-03 20:00:53
67,sao gabriel da cachoeira,-0.1303,-67.0892,27.89,74,75,3.6,BR,2023-04-03 20:00:44
68,chapais,49.7834,-74.8492,-3.12,98,100,2.52,CA,2023-04-03 20:00:53
69,puerto del rosario,28.5004,-13.8627,19.86,64,20,10.29,ES,2023-04-03 20:00:53
70,eisiskes,54.1667,25.0,-1.6,76,33,4.08,LT,2023-04-03 20:00:53
71,sokoto,13.0609,5.239,29.81,8,62,2.86,NG,2023-04-03 20:00:54
72,sinop,41.7711,34.8709,7.9,84,91,4.92,TR,2023-04-03 20:00:54
73,bronnoysund,65.4625,12.1997,4.0,87,75,2.24,NO,2023-04-03 20:00:54
74,husavik,66.0449,-17.3389,3.63,89,100,8.94,IS,2023-04-03 20:00:54
75,bandarbeyla,9.4942,50.8122,27.47,73,11,5.16,SO,2023-04-03 19:59:31
76,cape town,-33.9258,18.4232,17.29,85,0,1.54,ZA,2023-04-03 19:55:22
77,hualmay,-11.0964,-77.6139,26.83,71,92,4.37,PE,2023-04-03 19:59:48
78,ilo,-17.6394,-71.3375,26.48,69,0,4.63,PE,2023-04-03 20:00:55
79,bredasdorp,-34.5322,20.0403,16.39,80,16,1.3,ZA,2023-04-03 19:57:29
80,baykit,61.67,96.37,-12.7,98,76,1.44,RU,2023-04-03 19:57:28
81,barrow,71.2906,-156.7887,-15.99,78,100,6.17,US,2023-04-03 19:58:58
82,butaritari,3.0707,172.7902,27.79,80,97,8.38,KI,2023-04-03 19:57:16
83,nouadhibou,20.931,-17.0347,22.99,64,48,7.2,MR,2023-04-03 19:57:27
84,lagoa,39.05,-27.9833,14.5,73,100,6.62,PT,2023-04-03 20:00:56
85,itoman,26.1247,127.6694,20.43,68,40,7.72,JP,2023-04-03 19:59:02
86,yellowknife,62.456,-114.3525,-9.71,52,75,1.03,CA,2023-04-03 19:57:25
87,grindavik,63.8424,-22.4338,8.97,100,100,13.89,IS,2023-04-03 19:59:39
88,tiksi,71.6872,128.8694,-13.67,95,89,3.19,RU,2023-04-03 19:57:43
89,wajir,1.7471,40.0573,30.49,53,100,3.52,KE,2023-04-03 20:00:57
90,sechura,-5.5569,-80.8222,26.09,82,100,3.92,PE,2023-04-03 20:00:57
91,cumberland,35.0502,-78.8664,23.05,42,20,4.12,US,2023-04-03 20:00:57
92,lebu,-37.6167,-73.65,15.02,62,0,8.02,CL,2023-04-03 19:57:16
93,pouembout,-21.1333,164.9,24.76,86,14,1.5,NC,2023-04-03 20:00:58
94,hamilton,39.1834,-84.5333,22.26,60,64,1.79,US,2023-04-03 19:57:30
95,otradnoye,59.7775,30.8181,0.05,94,100,4.22,RU,2023-04-03 20:00:58
96,quatre cocos,-20.2078,57.7625,26.16,77,100,5.8,MU,2023-04-03 20:00:59
97,atuona,-9.8,-139.0333,26.64,83,97,7.46,PF,2023-04-03 19:57:10
98,nikolskoye,59.7035,30.7861,-0.05,95,100,3.82,RU,2023-04-03 19:57:11
99,sabang,5.8933,95.3214,27.5,73,99,1.41,ID,2023-04-03 20:01:01
100,santa vitoria,-18.8386,-50.1214,27.34,62,41,1.77,BR,2023-04-03 20:01:01
101,bathsheba,13.2167,-59.5167,29.34,65,75,8.75,BB,2023-04-03 20:01:02
102,port alfred,-33.5906,26.891,18.43,84,47,4.02,ZA,2023-04-03 19:57:40
103,chuy,-33.6971,-53.4616,18.9,69,99,1.62,UY,2023-04-03 19:56:36
104,mayo,38.8876,-76.5119,22.85,58,0,7.6,US,2023-04-03 20:01:03
105,labuhan,-6.8844,112.2051,25.04,85,100,3.02,ID,2023-04-03 20:01:03
106,tocopilla,-22.092,-70.1979,23.86,77,1,3.41,CL,2023-04-03 19:54:27
107,albany,42.6001,-73.9662,17.24,31,59,3.13,US,2023-04-03 19:57:18
108,khatanga,71.9667,102.5,-23.94,98,100,3.62,RU,2023-04-03 19:58:51
109,gladstone,-23.85,151.25,20.44,88,21,1.54,AU,2023-04-03 19:58:12
110,saskylakh,71.9167,114.0833,-21.36,97,97,5.13,RU,2023-04-03 19:57:12
111,tala,30.6803,30.9429,17.1,27,0,3.21,EG,2023-04-03 20:01:05
112,imbituba,-28.24,-48.6703,23.56,69,1,5.83,BR,2023-04-03 19:57:52
113,haapiti,-17.5667,-149.8667,29.85,71,80,2.0,PF,2023-04-03 20:01:05
114,yei,4.095,30.6779,22.81,70,100,3.01,SS,2023-04-03 20:01:06
115,utinga,-5.8172,-35.3954,30.47,62,20,6.17,BR,2023-04-03 20:01:06
116,kavieng,-2.5744,150.7967,27.23,76,100,1.99,PG,2023-04-03 19:58:55
117,busselton,-33.65,115.3333,14.52,83,13,2.55,AU,2023-04-03 19:57:37
118,egvekinot,66.3167,-179.1667,-23.94,88,54,3.26,RU,2023-04-03 20:01:07
119,paita,-5.0892,-81.1144,28.36,70,79,4.42,PE,2023-04-03 20:01:08
120,paidha,2.4167,30.9855,16.41,88,100,2.52,UG,2023-04-03 20:01:08
121,gizo,-8.103,156.8419,27.71,77,27,2.39,SB,2023-04-03 19:58:40
122,oksfjord,70.2396,22.3479,3.1,92,99,5.06,NO,2023-04-03 20:01:09
123,qui nhon,13.7667,109.2333,24.6,91,38,2.87,VN,2023-04-03 19:56:34
124,rio grande,-32.035,-52.0986,27.06,63,55,4.87,BR,2023-04-03 19:57:18
125,airai,-8.9266,125.4092,14.22,89,99,0.84,TL,2023-04-03 19:57:47
126,iquitos,-3.7481,-73.2472,27.02,89,75,1.54,PE,2023-04-03 20:01:10
127,bereznik,62.8551,42.7072,-2.71,92,100,3.75,RU,2023-04-03 20:01:10
128,ajaccio,42.0,8.9167,11.03,76,0,2.57,FR,2023-04-03 20:01:11
129,ixtapa,20.7,-105.2,32.7,27,99,3.87,MX,2023-04-03 20:01:11
130,jalu,29.0331,21.5482,20.02,30,0,4.84,LY,2023-04-03 19:58:16
131,leninskoye,41.7589,69.3864,10.44,87,100,2.11,KZ,2023-04-03 20:01:12
132,osa,57.2829,55.4567,1.24,92,93,0.63,RU,2023-04-03 20:01:12
133,ghanzi,-21.5667,21.7833,23.95,36,27,1.42,BW,2023-04-03 20:01:12
134,alofi,-19.0595,-169.9187,25.94,89,75,4.63,NU,2023-04-03 20:01:15
135,rawson,-43.3002,-65.1023,21.44,29,0,1.75,AR,2023-04-03 19:59:09
136,vanavara,60.34,102.2797,-4.0,93,100,5.24,RU,2023-04-03 19:57:25
137,kibala,9.1104,18.3463,31.97,45,0,0.0,TD,2023-04-03 20:01:16
138,nabire,-3.3667,135.4833,24.23,90,100,1.51,ID,2023-04-03 19:58:30
139,acapulco,16.8634,-99.8901,32.68,38,61,4.42,MX,2023-04-03 20:00:24
140,creston,41.0586,-94.3614,14.98,26,100,9.26,US,2023-04-03 20:01:18
141,hobart,-42.8794,147.3294,11.7,90,100,2.06,AU,2023-04-03 19:56:28
142,mahebourg,-20.4081,57.7,26.25,83,40,2.57,MU,2023-04-03 19:57:26
143,ponta do sol,32.6667,-17.1,18.4,62,52,4.37,PT,2023-04-03 19:58:37
144,tessalit,20.1986,1.0114,28.37,6,19,3.87,ML,2023-04-03 20:01:19
145,faya,18.3851,42.4509,16.06,60,7,2.13,SA,2023-04-03 20:01:19
146,norman wells,65.282,-126.8329,-4.98,80,40,1.54,CA,2023-04-03 19:59:42
147,seaford,50.7714,0.1027,7.27,72,0,1.34,GB,2023-04-03 20:01:19
148,raudeberg,61.9875,5.1352,4.42,73,40,7.58,NO,2023-04-03 20:01:20
149,ilulissat,69.2167,-51.1,-17.0,89,7,1.76,GL,2023-04-03 19:57:48
150,port hedland,-20.3167,118.5667,27.03,83,9,0.0,AU,2023-04-03 20:01:21
151,paraguacu paulista,-22.4128,-50.5758,26.05,67,0,1.99,BR,2023-04-03 20:01:23
152,avarua,-21.2078,-159.775,27.03,65,99,3.09,CK,2023-04-03 19:57:19
153,ngunguru,-35.6167,174.5,16.06,75,4,4.23,NZ,2023-04-03 19:58:31
154,mount isa,-20.7333,139.5,20.87,30,39,3.6,AU,2023-04-03 19:59:55
155,chifeng,42.2683,118.9636,2.3,79,100,3.73,CN,2023-04-03 20:01:26
156,verkhnevilyuysk,63.4453,120.3167,-10.7,98,100,1.31,RU,2023-04-03 20:01:27
157,ostrovnoy,68.0531,39.5131,-7.69,84,20,8.18,RU,2023-04-03 19:57:23
158,gua musang,4.8823,101.9644,22.17,99,99,0.62,MY,2023-04-03 20:01:27
159,dudinka,69.4058,86.1778,-34.79,100,48,2.05,RU,2023-04-03 19:58:04
160,padang,-0.9492,100.3543,24.8,86,100,1.22,ID,2023-04-03 19:55:15
161,hermanus,-34.4187,19.2345,13.22,83,21,1.42,ZA,2023-04-03 19:57:13
162,nadym,65.5333,72.5167,-24.37,97,5,2.76,RU,2023-04-03 20:01:28
163,uribia,11.7139,-72.266,33.72,40,0,8.34,CO,2023-04-03 20:01:29
164,camopi,3.1655,-52.3158,26.93,77,75,1.39,GF,2023-04-03 20:01:29
165,asfi,32.2994,-9.2372,16.53,84,65,4.5,MA,2023-04-03 19:58:42
166,ancud,-41.8697,-73.8203,14.37,68,6,3.04,CL,2023-04-03 19:58:25
167,praya,14.9215,-23.5087,26.3,50,16,2.06,CV,2023-04-03 20:01:31
168,salihli,38.4826,28.1477,15.37,40,62,3.25,TR,2023-04-03 20:01:31
169,londoko,49.0333,131.9833,0.19,52,94,5.28,RU,2023-04-03 20:01:31
170,severo-kurilsk,50.6789,156.125,-0.05,93,75,6.59,RU,2023-04-03 19:53:58
171,kruisfontein,-34.0033,24.7314,17.16,86,99,6.06,ZA,2023-04-03 20:01:31
172,solano,38.2333,-121.9511,15.62,32,0,3.6,US,2023-04-03 20:01:32
173,kavaratti,10.5669,72.642,27.85,69,27,4.93,IN,2023-04-03 19:53:51
174,tautira,-17.7333,-149.15,27.69,71,36,1.62,PF,2023-04-03 19:57:24
175,cherskiy,68.75,161.3,-21.63,85,100,4.39,RU,2023-04-03 19:56:18
176,leh,34.1667,77.5833,-5.54,84,98,1.46,IN,2023-04-03 20:01:33
177,la ronge,55.1001,-105.2842,-8.86,38,40,3.6,CA,2023-04-03 20:01:33
178,teya,60.3778,92.6267,-6.44,92,67,2.48,RU,2023-04-03 19:58:27
179,hirara,24.8,125.2833,19.92,77,75,3.09,JP,2023-04-03 20:01:34
180,russell,32.3502,-85.1999,17.45,94,75,4.63,US,2023-04-03 20:01:28
181,labuan,5.2767,115.2417,26.2,88,20,0.0,MY,2023-04-03 20:01:34
182,shanhetun,44.7,127.2,5.7,31,100,3.71,CN,2023-04-03 20:01:34
183,dakar,14.6937,-17.4441,25.07,88,20,5.14,SN,2023-04-03 20:00:00
184,tottori,35.5,134.2333,7.41,50,21,2.21,JP,2023-04-03 20:01:35
185,saint george,37.1041,-113.5841,17.33,20,20,21.61,US,2023-04-03 19:55:48
186,maridi,4.9158,29.4742,22.69,48,100,2.55,SS,2023-04-03 20:01:35
187,mocuba,-16.8392,36.9856,19.97,94,33,0.74,MZ,2023-04-03 20:01:35
188,dikson,73.5069,80.5464,-27.32,99,100,4.84,RU,2023-04-03 19:57:30
189,qaanaaq,77.484,-69.3632,-22.01,76,5,2.0,GL,2023-04-03 19:57:54
190,boa vista,2.8197,-60.6733,32.99,40,40,5.14,BR,2023-04-03 20:01:36
191,hithadhoo,-0.6,73.0833,27.97,74,100,4.92,MV,2023-04-03 19:57:16
192,koumac,-20.5667,164.2833,25.84,81,55,1.0,NC,2023-04-03 19:58:58
193,ca mau,9.1769,105.15,25.06,85,7,1.5,VN,2023-04-03 19:59:11
194,ahome,25.9167,-109.1833,30.2,17,100,5.5,MX,2023-04-03 20:01:37
195,praia da vitoria,38.7333,-27.0667,17.14,72,40,2.61,PT,2023-04-03 19:52:38
196,pauini,-7.7136,-66.9764,26.81,74,91,1.31,BR,2023-04-03 20:01:37
197,kodiak,57.79,-152.4072,0.73,100,100,2.57,US,2023-04-03 19:57:40
198,villa rica,33.7321,-84.9191,15.21,94,100,3.6,US,2023-04-03 20:01:38
199,forbes,-33.3833,148.0167,17.73,72,34,2.29,AU,2023-04-03 20:01:38
200,durazno,-33.4131,-56.5006,18.72,77,100,1.01,UY,2023-04-03 20:01:38
201,sola,-13.8833,167.55,28.08,75,18,8.04,VU,2023-04-03 20:01:38
202,pevek,69.7008,170.3133,-30.27,97,47,3.3,RU,2023-04-03 19:57:17
203,posse,-14.0931,-46.3694,27.13,51,100,0.99,BR,2023-04-03 20:01:38
204,yulara,-25.2406,130.9889,22.19,40,98,3.29,AU,2023-04-03 19:58:06
205,anloga,5.7947,0.8973,28.36,78,99,5.54,GH,2023-04-03 20:01:39
206,fort nelson,58.8053,-122.7002,-0.03,51,75,4.63,CA,2023-04-03 19:56:56
207,balakhninskiy,58.0106,114.2769,-5.9,92,100,5.68,RU,2023-04-03 20:01:39
208,poquoson,37.1224,-76.3458,23.02,46,75,5.66,US,2023-04-03 20:01:39
209,port-gentil,-0.7193,8.7815,27.1,79,100,4.26,GA,2023-04-03 19:59:49
210,kirakira,-10.4544,161.9205,27.15,83,99,2.96,SB,2023-04-03 20:01:40
211,umea,63.8284,20.2597,-2.83,74,100,1.54,SE,2023-04-03 20:01:40
212,lorengau,-2.0226,147.2712,26.5,79,100,0.98,PG,2023-04-03 19:58:26
213,qandala,11.472,49.8728,28.04,70,6,1.57,SO,2023-04-03 20:01:40
214,arica,-18.475,-70.3042,30.75,69,0,6.69,CL,2023-04-03 19:57:37
215,pemberton,50.3164,-122.8027,7.83,49,23,1.16,CA,2023-04-03 20:00:10
216,muros,42.7762,-9.0603,14.35,84,100,3.28,ES,2023-04-03 20:01:41
217,saravan,39.7196,45.6483,6.0,76,96,0.93,AM,2023-04-03 20:01:42
218,sao domingos do maranhao,-5.5758,-44.3853,25.6,90,89,1.11,BR,2023-04-03 20:01:42
219,fonte boa,-2.4959,-66.2662,29.59,64,98,1.55,BR,2023-04-03 20:01:42
220,birin,26.8865,88.0718,12.0,65,4,2.49,NP,2023-04-03 20:01:42
221,sitka,57.0531,-135.33,3.94,70,20,1.54,US,2023-04-03 19:59:24
222,north adams,42.7009,-73.1087,14.87,28,59,2.24,US,2023-04-03 20:01:43
223,verkhniy ufaley,56.0567,60.2306,2.64,78,39,1.29,RU,2023-04-03 20:01:43
224,caxias do sul,-29.1681,-51.1794,26.65,46,40,3.09,BR,2023-04-03 20:01:43
225,kaeo,-35.1,173.7833,15.93,66,78,2.32,NZ,2023-04-03 19:57:41
226,senlis,49.25,2.6667,9.16,78,5,2.67,FR,2023-04-03 20:01:44
227,inhambane,-23.865,35.3833,22.71,81,0,3.6,MZ,2023-04-03 19:58:18
228,port elizabeth,-33.918,25.5701,18.51,84,0,7.72,ZA,2023-04-03 19:57:34
229,dukat,62.55,155.55,-25.52,86,6,1.57,RU,2023-04-03 20:01:44
230,eyl,7.9803,49.8164,27.83,70,9,6.1,SO,2023-04-03 20:01:45
231,hasaki,35.7333,140.8333,6.23,56,0,5.14,JP,2023-04-03 19:59:05
232,batagay-alyta,67.8006,130.4114,-22.35,89,8,2.81,RU,2023-04-03 20:01:45
233,tocache,-8.1842,-76.5125,29.52,62,48,1.62,PE,2023-04-03 20:01:46
234,kysyl-syr,63.8986,122.7617,-11.31,98,100,0.99,RU,2023-04-03 20:01:46
235,sanchor,24.7553,71.7722,25.66,60,2,5.98,IN,2023-04-03 20:01:47
236,iqaluit,63.7506,-68.5145,-13.15,66,75,6.69,CA,2023-04-03 19:58:09
237,viedma,-40.8135,-62.9967,22.59,34,0,5.41,AR,2023-04-03 20:01:48
238,wajima,37.4,136.9,9.32,76,3,2.41,JP,2023-04-03 20:01:48
239,miri,4.4148,114.0089,25.08,88,40,2.57,MY,2023-04-03 20:01:49
240,fortuna,40.5982,-124.1573,9.4,71,81,1.34,US,2023-04-03 19:56:59
241,mitsamiouli,-11.3847,43.2844,27.48,76,66,1.96,KM,2023-04-03 19:57:27
242,saint-georges,12.0564,-61.7485,29.82,66,20,6.69,GD,2023-04-03 19:55:52
243,qasigiannguit,68.8193,-51.1922,-20.34,95,14,0.59,GL,2023-04-03 19:58:54
244,buraydah,26.326,43.975,19.25,15,1,4.18,SA,2023-04-03 20:01:50
245,sur,22.5667,59.5289,24.31,57,3,1.9,OM,2023-04-03 20:01:50
246,mazsalaca,57.8633,25.0547,-1.85,90,99,4.15,LV,2023-04-03 20:01:50
247,stykkisholmur,65.0757,-22.7297,5.08,89,100,7.09,IS,2023-04-03 20:01:51
248,duzce,40.8389,31.1639,14.78,71,100,2.48,TR,2023-04-03 20:01:51
249,marquette,46.5333,-87.6335,0.69,81,100,3.51,US,2023-04-03 20:01:52
250,ternate,0.8,127.4,26.78,79,70,1.94,ID,2023-04-03 20:01:52
251,san jose,37.3394,-121.895,14.82,38,20,7.2,US,2023-04-03 19:57:13
252,sinnamary,5.3833,-52.95,27.21,67,54,3.96,GF,2023-04-03 20:01:52
253,san patricio,28.017,-97.5169,35.09,52,63,7.24,US,2023-04-03 19:58:29
254,tuatapere,-46.1333,167.6833,10.37,89,76,1.84,NZ,2023-04-03 19:59:22
255,sioux lookout,50.1001,-91.917,-3.96,54,40,3.6,CA,2023-04-03 19:59:27
256,luwuk,-0.9516,122.7875,24.51,93,100,2.93,ID,2023-04-03 20:01:54
257,linxia,35.6003,103.2064,2.66,80,100,0.17,CN,2023-04-03 20:01:54
258,aksarka,66.5606,67.7975,-20.1,96,21,5.08,RU,2023-04-03 20:01:55
259,bartlesville,36.7473,-95.9808,29.97,41,0,0.89,US,2023-04-03 20:00:24
260,mehamn,71.0357,27.8492,-0.05,79,31,7.65,NO,2023-04-03 20:01:55
261,kambove,-10.8764,26.5969,16.73,96,100,1.56,CD,2023-04-03 20:01:56
262,codrington,-38.2667,141.9667,10.45,91,49,1.86,AU,2023-04-03 19:58:06
263,biak,-0.9131,122.8766,23.71,91,100,3.5,ID,2023-04-03 20:01:56
264,deputatskiy,69.3,139.9,-20.03,100,61,1.7,RU,2023-04-03 19:59:11
265,namibe,-15.1961,12.1522,24.79,69,93,4.32,AO,2023-04-03 19:58:28
266,bud,39.447,-86.1758,23.56,56,57,6.22,US,2023-04-03 20:01:57
267,puerto escondido,15.85,-97.0667,30.89,57,47,5.24,MX,2023-04-03 19:57:33
268,karabuk,41.2049,32.6277,13.79,73,100,1.88,TR,2023-04-03 20:01:57
269,puerto asis,0.5133,-76.5007,32.11,47,70,0.4,CO,2023-04-03 20:01:57
270,karaton,-6.3424,106.1045,23.0,91,100,1.75,ID,2023-04-03 20:01:58
271,bengkulu,-3.8004,102.2655,23.6,92,100,2.44,ID,2023-04-03 19:57:15
272,zhigansk,66.7697,123.3711,-12.44,98,99,4.17,RU,2023-04-03 19:58:37
273,san vicente,-26.6167,-54.1333,29.69,31,6,1.19,AR,2023-04-03 20:01:58
274,dongying,37.4564,118.4856,9.07,81,100,8.46,CN,2023-04-03 19:58:18
275,shangzhi,45.2167,127.9667,5.1,43,100,2.1,CN,2023-04-03 20:01:59
276,caxito,-8.5785,13.6643,23.77,93,100,0.97,AO,2023-04-03 20:01:59
277,nivala,63.9167,24.9667,-8.51,97,24,1.05,FI,2023-04-03 20:01:59
278,port moresby,-9.4431,147.1797,24.68,94,40,3.6,PG,2023-04-03 20:01:59
279,tomatlan,19.9333,-105.25,31.33,42,14,4.6,MX,2023-04-03 20:01:59
280,whitianga,-36.8333,175.7,13.63,83,15,1.83,NZ,2023-04-03 20:02:00
281,kaitangata,-46.2817,169.8464,11.38,81,60,2.63,NZ,2023-04-03 19:57:37
282,longyearbyen,78.2186,15.6401,-12.09,72,100,9.77,SJ,2023-04-03 19:57:49
283,kailua,21.4022,-157.7394,26.19,76,23,1.79,US,2023-04-03 20:02:00
284,cape coast,5.1053,-1.2466,27.62,80,85,5.25,GH,2023-04-03 20:02:01
285,garowe,8.4054,48.4845,26.29,65,85,7.02,SO,2023-04-03 20:02:01
286,berlevag,70.8578,29.0864,-0.03,69,100,11.83,NO,2023-04-03 19:57:45
287,mogadishu,2.0371,45.3438,28.12,75,53,6.08,SO,2023-04-03 19:57:12
288,cerqueira cesar,-23.0356,-49.1661,24.4,67,0,2.19,BR,2023-04-03 20:02:02
289,camacha,33.0833,-16.3333,16.68,72,40,10.29,PT,2023-04-03 19:59:01
290,ust-kuyga,70.0167,135.6,-20.12,100,100,1.78,RU,2023-04-03 19:58:47
291,maliq,40.7058,20.6997,3.32,97,100,0.49,AL,2023-04-03 20:02:02
292,yurginskoye,56.8189,67.3921,0.75,81,7,3.0,RU,2023-04-03 20:02:02
293,klaksvik,62.2266,-6.589,8.51,89,100,11.1,FO,2023-04-03 19:59:44
294,san cristobal,7.7669,-72.225,29.1,40,32,2.47,VE,2023-04-03 19:57:26
295,mineiros,-17.5694,-52.5511,25.53,67,23,0.68,BR,2023-04-03 20:02:04
296,alugan,12.2188,125.4808,25.36,84,100,4.39,PH,2023-04-03 20:02:04
297,mount gambier,-37.8333,140.7667,10.06,95,100,1.55,AU,2023-04-03 19:57:58
298,cockburn town,21.4612,-71.1419,25.41,77,0,7.24,TC,2023-04-03 20:02:05
299,asau,46.4333,26.4,3.51,90,100,2.34,RO,2023-04-03 19:59:22
300,ucluelet,48.9329,-125.5528,7.27,80,5,0.89,CA,2023-04-03 20:02:05
301,soyo,-6.1349,12.3689,27.5,79,90,4.08,AO,2023-04-03 20:02:05
302,vao,-22.6667,167.4833,25.53,82,73,4.81,NC,2023-04-03 20:02:06
303,uglekamensk,43.2172,133.2303,5.87,86,100,0.46,RU,2023-04-03 20:02:06
304,saldanha,-33.0117,17.9442,17.03,87,12,3.62,ZA,2023-04-03 19:58:05
305,jaen,38.0,-3.5,13.29,28,91,2.19,ES,2023-04-03 20:02:07
306,jesup,31.6074,-81.8854,24.96,61,100,2.57,US,2023-04-03 20:02:08
307,emerald,-23.5333,148.1667,19.08,91,7,3.34,AU,2023-04-03 20:01:25
308,verkhnyaya inta,65.9811,60.3094,-18.14,91,5,2.79,RU,2023-04-03 20:02:08
309,kita,13.0349,-9.4895,33.06,7,5,1.75,ML,2023-04-03 20:02:10
310,upernavik,72.7868,-56.1549,-24.18,94,73,1.64,GL,2023-04-03 19:58:36
311,hannibal,39.7084,-91.3585,25.51,38,75,2.57,US,2023-04-03 20:02:10
312,baruun-urt,46.6806,113.2792,-6.91,36,74,2.33,MN,2023-04-03 20:02:11
313,kasongo-lunda,-6.4667,16.8167,21.9,95,72,0.23,CD,2023-04-03 20:02:11
314,talnakh,69.4865,88.3972,-32.77,99,64,2.83,RU,2023-04-03 19:58:16
315,sahuaripa,29.05,-109.2333,31.9,5,15,7.93,MX,2023-04-03 20:01:26
316,naryan-mar,67.6713,53.087,-14.11,96,9,3.58,RU,2023-04-03 20:02:12
317,acopiara,-6.0953,-39.4525,26.71,73,99,1.34,BR,2023-04-03 20:02:12
318,victoria,22.2855,114.1577,23.3,95,90,5.95,HK,2023-04-03 19:53:46
319,prince rupert,54.3161,-130.3201,5.05,76,75,7.2,CA,2023-04-03 20:00:45
320,belyy yar,53.6039,91.3903,-2.06,43,0,3.0,RU,2023-04-03 20:02:13
321,clyde river,70.4692,-68.5914,-20.87,71,0,1.54,CA,2023-04-03 19:57:48
322,talas,38.6908,35.5538,11.37,58,0,4.12,TR,2023-04-03 20:00:04
323,gibraleon,37.3763,-6.969,15.42,60,96,3.02,ES,2023-04-03 20:02:14
324,nanortalik,60.1432,-45.2371,2.46,84,100,1.83,GL,2023-04-03 19:57:59
325,rock springs,41.5875,-109.2029,-0.53,89,100,9.26,US,2023-04-03 20:02:15
326,sena madureira,-9.0656,-68.6569,27.4,88,81,1.64,BR,2023-04-03 20:02:15
327,broome,42.2506,-75.833,18.17,38,0,8.23,US,2023-04-03 19:59:02
328,dourbali,11.8091,15.8632,31.98,15,53,3.98,TD,2023-04-03 20:02:16
329,lekoni,-1.5843,14.2591,24.7,80,78,3.54,GA,2023-04-03 20:02:16
330,saint-augustin,51.226,-58.6502,2.06,64,23,5.16,CA,2023-04-03 20:02:16
331,tanout,14.9709,8.8879,26.97,7,62,2.39,NE,2023-04-03 20:02:16
332,laviana,43.2333,-5.5333,12.06,93,100,1.41,ES,2023-04-03 20:02:17
333,antofagasta,-23.65,-70.4,23.6,78,40,3.54,CL,2023-04-03 19:52:53
334,laguna,38.421,-121.4238,14.08,33,0,8.23,US,2023-04-03 19:56:22
335,synya,65.3718,58.0387,-17.65,94,5,1.61,RU,2023-04-03 20:02:17
336,mulege,26.8833,-111.9833,27.42,20,52,3.84,MX,2023-04-03 20:02:18
337,oussouye,12.485,-16.5469,30.1,65,6,4.4,SN,2023-04-03 20:02:18
338,cajetina,43.7498,19.7127,0.37,100,100,3.53,RS,2023-04-03 20:02:18
339,sao joao da barra,-21.6403,-41.0511,27.05,69,100,5.47,BR,2023-04-03 19:59:10
340,moralillo,22.2167,-97.9,28.13,78,75,6.37,MX,2023-04-03 20:02:18
341,marsh harbour,26.5412,-77.0636,24.78,74,32,4.0,BS,2023-04-03 20:02:19
342,moussoro,13.6408,16.4901,31.56,10,43,4.97,TD,2023-04-03 20:02:19
343,ponta delgada,37.7333,-25.6667,15.4,67,20,2.57,PT,2023-04-03 19:58:48
344,teignmouth,50.5477,-3.4964,7.62,87,0,6.19,GB,2023-04-03 20:02:19
345,amarante do maranhao,-5.5667,-46.7422,26.2,81,99,1.32,BR,2023-04-03 20:02:20
346,nyurba,63.2842,118.3319,-10.76,97,100,2.14,RU,2023-04-03 20:02:21
347,warrnambool,-38.3833,142.4833,8.52,88,61,1.64,AU,2023-04-03 19:59:47
348,vestmannaeyjar,63.4427,-20.2734,8.23,95,100,14.45,IS,2023-04-03 19:58:18
349,butembo,0.15,29.2833,13.66,96,91,0.63,CD,2023-04-03 20:02:22
350,vila franca do campo,37.7167,-25.4333,15.23,71,54,2.73,PT,2023-04-03 20:02:22
351,golden,39.7555,-105.2211,17.05,40,75,5.66,US,2023-04-03 20:02:22
352,mecca,21.4267,39.8261,24.59,39,88,1.64,SA,2023-04-03 19:59:42
353,smila,49.2224,31.8871,5.76,94,100,4.31,UA,2023-04-03 20:02:23
354,patea,-39.7583,174.4833,11.14,81,10,1.22,NZ,2023-04-03 20:02:23
355,severodvinsk,64.5635,39.8302,-3.94,93,92,3.24,RU,2023-04-03 20:02:23
356,havoysund,70.9963,24.6622,1.13,82,71,8.57,NO,2023-04-03 20:02:24
357,clovis,36.8252,-119.7029,12.87,42,40,8.23,US,2023-04-03 20:02:24
358,rocha,-34.4833,-54.3333,18.75,76,100,0.54,UY,2023-04-03 19:58:12
359,atar,20.5169,-13.0499,31.26,7,48,5.3,MR,2023-04-03 20:02:24
360,kargil,34.5667,76.1,-3.8,91,100,2.11,IN,2023-04-03 20:02:24
361,abnub,27.2696,31.1511,24.12,11,4,1.25,EG,2023-04-03 20:02:25
362,port lincoln,-34.7333,135.8667,17.58,72,6,2.44,AU,2023-04-03 19:58:34
363,new glasgow,45.5834,-62.6486,3.77,59,99,4.03,CA,2023-04-03 20:02:26
364,bethanien,-26.502,17.1583,20.17,18,0,3.13,NA,2023-04-03 20:02:26
365,dingle,10.9995,122.6711,23.83,90,100,2.68,PH,2023-04-03 19:58:33
366,faanui,-16.4833,-151.75,27.79,71,28,2.62,PF,2023-04-03 19:57:38
367,murakami,38.2333,139.4833,6.18,83,0,1.26,JP,2023-04-03 19:57:36
368,pacific grove,36.6177,-121.9166,14.93,58,4,9.83,US,2023-04-03 20:02:27
369,batemans bay,-35.7167,150.1833,16.17,91,41,1.9,AU,2023-04-03 19:59:40
370,marau,-28.4492,-52.2,28.97,39,27,1.29,BR,2023-04-03 20:02:27
371,roald,62.5833,6.1333,5.18,81,40,3.6,NO,2023-04-03 20:02:28
372,namatanai,-3.6667,152.4333,25.89,81,99,1.48,PG,2023-04-03 19:58:06
373,ust-koksa,50.2696,85.6108,-8.17,80,23,0.67,RU,2023-04-03 20:02:28
374,vila velha,-20.3297,-40.2925,26.97,63,75,6.17,BR,2023-04-03 19:58:53
375,imeni poliny osipenko,52.4201,136.4853,0.51,95,100,2.26,RU,2023-04-03 20:02:28
376,puerto rondon,6.2805,-71.1,32.78,41,100,3.35,CO,2023-04-03 20:02:28
377,santarem,-2.4431,-54.7083,30.07,70,0,4.12,BR,2023-04-03 20:02:14
378,manono,-7.3,27.4167,21.39,94,93,1.03,CD,2023-04-03 20:02:29
379,meadow lake,34.8014,-106.5436,23.8,5,0,12.67,US,2023-04-03 20:02:29
380,ishinomaki,38.4167,141.3,6.11,71,0,1.07,JP,2023-04-03 20:02:30
381,buritis,-15.6178,-46.4233,24.34,70,100,1.02,BR,2023-04-03 19:59:19
382,cabedelo,-6.9811,-34.8339,29.37,77,88,5.92,BR,2023-04-03 19:59:31
383,whyalla,-33.0333,137.5833,18.8,36,1,3.98,AU,2023-04-03 20:02:30
384,lastoursville,-0.8143,12.7287,23.68,93,98,0.59,GA,2023-04-03 20:02:30
385,fairbanks,64.8378,-147.7164,-2.17,69,77,1.83,US,2023-04-03 20:02:31
386,kaoma,-14.7833,24.8,18.14,89,54,2.23,ZM,2023-04-03 20:02:31
387,lac du bonnet,50.2536,-96.0612,-3.08,74,100,4.07,CA,2023-04-03 20:02:31
388,merauke,-8.4667,140.3333,24.37,89,99,2.02,ID,2023-04-03 19:58:01
389,diu,20.7141,70.9822,23.41,78,0,4.36,IN,2023-04-03 20:02:32
390,ocean city,39.2776,-74.5746,17.23,67,100,1.34,US,2023-04-03 20:00:28
391,taunggyi,20.7833,97.0333,14.65,66,90,1.15,MM,2023-04-03 20:02:34
392,nikolayevsk-na-amure,53.1406,140.73,2.91,85,100,2.17,RU,2023-04-03 20:02:34
393,isabela,6.7085,121.9711,26.12,86,98,2.54,PH,2023-04-03 20:02:35
394,bubaque,11.2833,-15.8333,25.85,76,8,7.46,GW,2023-04-03 19:58:47
395,inuvik,68.3499,-133.7218,-15.52,69,20,2.57,CA,2023-04-03 20:00:55
396,okha,53.5739,142.9478,-0.47,92,100,8.59,RU,2023-04-03 20:02:35
397,lappersdorf,49.0569,12.09,1.46,64,2,0.45,DE,2023-04-03 20:02:38
398,sorland,67.667,12.6934,2.92,72,80,7.61,NO,2023-04-03 20:02:38
399,pitimbu,-7.4706,-34.8086,29.33,76,50,6.35,BR,2023-04-03 19:58:12
400,coos bay,43.3665,-124.2179,7.35,81,100,2.06,US,2023-04-03 20:02:38
401,boende,-0.2167,20.8667,21.36,98,100,4.1,CD,2023-04-03 20:02:38
402,te anau,-45.4167,167.7167,9.06,91,19,0.11,NZ,2023-04-03 19:58:31
403,nelson bay,-32.7167,152.15,18.89,97,100,3.58,AU,2023-04-03 19:59:02
404,paamiut,61.994,-49.6678,1.8,84,100,4.29,GL,2023-04-03 20:02:39
405,harlingen,26.1906,-97.6961,31.62,100,56,8.84,US,2023-04-03 20:00:21
406,foam lake,51.65,-103.5343,-11.99,78,100,4.09,CA,2023-04-03 20:02:39
407,scarborough,54.2797,-0.4044,4.88,85,19,5.36,GB,2023-04-03 20:02:39
408,bhabua,25.05,83.6167,26.05,25,1,0.99,IN,2023-04-03 20:02:39
409,porto novo,6.4965,2.6036,28.9,78,100,4.29,BJ,2023-04-03 20:02:40
410,port hardy,50.6996,-127.4199,7.1,70,75,5.14,CA,2023-04-03 20:00:10
411,san mateo del mar,16.2,-95.0,28.82,72,84,7.67,MX,2023-04-03 20:02:40
412,karratha,-20.7377,116.8463,27.78,75,9,4.11,AU,2023-04-03 20:02:40
413,eenhana,-17.4667,16.3333,21.99,60,63,2.09,NA,2023-04-03 20:02:40
414,moshi,-3.35,37.3333,24.21,87,99,1.59,TZ,2023-04-03 20:02:40
415,hambantota,6.1241,81.1185,26.36,79,99,0.23,LK,2023-04-03 19:57:48
416,huescar,37.811,-2.5412,10.14,28,100,1.38,ES,2023-04-03 20:02:41
417,kungsbacka,57.4872,12.0761,2.25,71,100,1.34,SE,2023-04-03 20:02:41
418,guerrero negro,27.9769,-114.0611,17.55,61,82,10.06,MX,2023-04-03 19:53:30
419,woodward,36.4337,-99.3904,28.87,17,0,3.6,US,2023-04-03 20:02:41
420,lompoc,34.6391,-120.4579,15.38,53,20,11.83,US,2023-04-03 19:58:14
421,rio gallegos,-51.6226,-69.2181,22.03,21,75,13.89,AR,2023-04-03 19:58:10
422,valdivia,-39.8142,-73.2459,21.05,39,0,1.69,CL,2023-04-03 20:02:42
423,oksovskiy,62.6062,39.8984,-2.22,95,100,3.75,RU,2023-04-03 20:02:42
424,tukrah,32.5341,20.5791,15.06,74,7,12.25,LY,2023-04-03 20:02:42
425,penalva,-3.2942,-45.1736,25.17,94,100,1.33,BR,2023-04-03 20:02:26
426,huarmey,-10.0681,-78.1522,27.46,71,98,3.64,PE,2023-04-03 19:59:15
427,uberaba,-19.7483,-47.9319,22.32,78,75,7.2,BR,2023-04-03 20:02:43
428,maneadero,31.7167,-116.5667,14.5,65,93,2.68,MX,2023-04-03 20:02:43
429,tashtagol,52.7657,87.8894,-7.72,94,36,0.95,RU,2023-04-03 20:02:43
430,shimoda,34.6667,138.95,10.42,65,0,4.84,JP,2023-04-03 20:02:43
431,tutoia,-2.7619,-42.2744,25.88,85,74,2.76,BR,2023-04-03 20:01:27
432,takoradi,4.8845,-1.7554,27.5,80,96,3.66,GH,2023-04-03 20:02:44
433,tumpat,6.1978,102.171,25.01,88,20,1.03,MY,2023-04-03 20:02:44
434,dothan,31.2232,-85.3905,24.11,83,40,2.57,US,2023-04-03 20:01:38
435,kamenka,51.3223,42.7678,9.79,58,83,3.54,RU,2023-04-03 20:02:44
436,hofn,64.2539,-15.2082,8.01,93,100,10.29,IS,2023-04-03 19:58:26
437,berdigestyakh,62.0989,126.6992,-10.17,96,100,2.12,RU,2023-04-03 20:02:44
438,bilibino,68.0546,166.4372,-29.1,97,47,1.13,RU,2023-04-03 20:02:45
439,tecoanapa,16.5167,-98.75,30.69,54,100,6.25,MX,2023-04-03 20:02:45
440,charters towers,-20.1,146.2667,21.15,96,18,2.37,AU,2023-04-03 19:57:53
441,miranda de ebro,42.6865,-2.947,7.54,87,81,2.25,ES,2023-04-03 20:02:45
442,aldan,58.6031,125.3894,-11.25,94,100,5.02,RU,2023-04-03 20:02:45
443,mastic beach,40.7668,-72.8521,13.05,64,0,8.75,US,2023-04-03 19:58:13
444,sterling,39.0062,-77.4286,22.78,40,40,7.72,US,2023-04-03 19:55:56
445,sobradinho,-12.8333,-39.1,26.7,65,100,3.92,BR,2023-04-03 20:02:46
446,loksa,59.5764,25.7214,0.52,84,95,6.82,EE,2023-04-03 20:02:46
447,coahuayana,18.7333,-103.6833,32.74,39,88,3.91,MX,2023-04-03 19:59:40
448,ambilobe,-13.2,49.05,23.03,96,75,1.44,MG,2023-04-03 19:58:37
449,souillac,-20.5167,57.5167,26.21,83,40,2.57,MU,2023-04-03 19:58:07
450,leningradskiy,69.3833,178.4167,-29.4,95,8,1.72,RU,2023-04-03 19:58:08
451,byron bay,-28.65,153.6167,18.17,92,100,5.2,AU,2023-04-03 20:02:47
452,bonnyville,54.2668,-110.735,-2.38,85,100,3.33,CA,2023-04-03 20:00:10
453,svetlogorsk,52.6333,29.7333,0.1,94,100,4.81,BY,2023-04-03 20:02:47
454,marrakesh,31.6315,-8.0083,23.04,31,20,4.12,MA,2023-04-03 20:02:48
455,tiznit,29.5833,-9.5,15.97,66,0,3.29,MA,2023-04-03 19:57:51
456,miram shah,33.0086,70.0697,13.35,76,56,1.08,PK,2023-04-03 20:02:48
457,torquay,50.4638,-3.5143,7.14,75,0,7.05,GB,2023-04-03 20:02:48
458,burnie,-41.0667,145.9167,9.97,98,100,1.82,AU,2023-04-03 19:59:46
459,belousovka,50.1339,82.5239,-5.53,80,1,1.0,KZ,2023-04-03 20:02:48
460,sao filipe,14.8961,-24.4956,24.09,68,3,2.17,CV,2023-04-03 19:57:59
461,ovalle,-30.5983,-71.2003,29.02,28,78,4.06,CL,2023-04-03 20:02:24
462,henties bay,-22.116,14.2845,16.72,83,0,2.36,NA,2023-04-03 20:02:49
463,cheremushskiy,61.2731,47.2636,-0.26,94,100,4.07,RU,2023-04-03 20:02:49
464,isiro,2.7739,27.616,19.56,98,82,2.05,CD,2023-04-03 20:02:49
465,salalah,17.0151,54.0924,28.16,39,25,2.19,OM,2023-04-03 19:58:57
466,mount pleasant,32.7941,-79.8626,22.95,76,0,3.6,US,2023-04-03 20:02:50
467,lublin,51.0,23.0,1.77,70,100,3.13,PL,2023-04-03 19:57:50
468,aracati,-4.5617,-37.7697,27.33,75,99,3.26,BR,2023-04-03 19:59:57
469,katsuura,35.1333,140.3,10.07,64,0,4.86,JP,2023-04-03 19:58:53
470,alice springs,-23.7,133.8833,15.75,94,75,0.0,AU,2023-04-03 19:59:00
471,auki,-8.7676,160.7034,25.71,85,92,1.7,SB,2023-04-03 19:57:50
472,yichun,47.7,128.9,-1.97,40,49,3.77,CN,2023-04-03 20:02:51
473,krasnoborsk,61.5598,45.934,-0.45,94,100,3.88,RU,2023-04-03 20:02:51
474,sakaiminato,35.55,133.2333,4.99,100,75,1.54,JP,2023-04-03 20:02:51
475,opuwo,-18.0607,13.84,24.25,33,78,1.52,NA,2023-04-03 20:02:51
476,lavrentiya,65.5833,-171.0,-14.98,90,97,3.38,RU,2023-04-03 19:59:43
477,rio verde de mato grosso,-18.9181,-54.8442,28.96,65,2,2.02,BR,2023-04-03 20:02:52
478,lindsay,36.203,-119.0882,12.82,43,74,9.01,US,2023-04-03 20:02:56
479,matay,28.419,30.7792,22.73,13,0,2.32,EG,2023-04-03 20:02:57
480,christchurch,-43.5333,172.6333,9.41,94,75,0.0,NZ,2023-04-03 20:01:31
481,kashi,39.4547,75.9797,13.56,8,100,4.0,CN,2023-04-03 19:59:11
482,quepos,9.4236,-84.1652,30.22,65,80,3.07,CR,2023-04-03 20:02:58
483,salta,-24.7859,-65.4117,23.65,79,75,2.06,AR,2023-04-03 19:57:58
484,margate,51.3813,1.3862,7.61,56,5,2.68,GB,2023-04-03 19:57:39
485,lagos,6.5833,3.75,29.18,86,100,2.99,NG,2023-04-03 20:02:46
486,makakilo city,21.3469,-158.0858,25.38,76,20,4.63,US,2023-04-03 19:57:11
487,honiara,-9.4333,159.95,25.63,87,99,2.68,SB,2023-04-03 20:02:59
488,shubarkuduk,49.1447,56.4872,8.66,37,94,4.01,KZ,2023-04-03 20:02:59
489,date,42.4681,140.8681,5.46,72,48,0.62,JP,2023-04-03 20:03:00
490,hellvik,59.9156,5.781,5.43,73,79,0.45,NO,2023-04-03 20:03:00
491,sao geraldo do araguaia,-6.4006,-48.555,25.48,94,83,0.86,BR,2023-04-03 20:03:01
492,pokhara,28.2333,83.9833,17.28,62,66,1.03,NP,2023-04-03 20:03:01
493,san andres,12.5847,-81.7006,31.01,58,20,7.2,CO,2023-04-03 20:03:01
494,aklavik,68.2191,-135.0107,-10.71,83,87,0.63,CA,2023-04-03 19:57:54
495,yafran,32.0633,12.5286,12.2,38,62,1.29,LY,2023-04-03 20:03:02
496,vilhena,-12.7406,-60.1458,27.12,69,75,4.12,BR,2023-04-03 20:03:02
497,taoudenni,22.6783,-3.9836,31.18,5,0,0.8,ML,2023-04-03 20:03:03
498,tura,25.5198,90.2201,20.74,71,95,1.94,IN,2023-04-03 19:57:59
499,dwarka,22.2394,68.9678,24.92,81,2,5.26,IN,2023-04-03 20:03:04
500,raga,8.4596,25.678,27.89,16,61,1.37,SS,2023-04-03 20:03:04
501,koberice,49.9855,18.0521,2.22,100,99,4.42,CZ,2023-04-03 20:03:04
502,juneau,58.3019,-134.4197,4.67,93,16,0.56,US,2023-04-03 20:00:27
503,dahra,36.2546,0.8519,13.66,74,5,1.82,DZ,2023-04-03 20:03:04
504,aswan,24.0934,32.907,27.61,11,0,0.0,EG,2023-04-03 19:58:32
505,alma,48.5501,-71.6491,1.07,96,100,3.41,CA,2023-04-03 20:03:05
506,simbahan,6.3032,120.5836,27.09,79,100,3.46,PH,2023-04-03 20:03:05
507,ulladulla,-35.35,150.4667,10.43,88,55,1.77,AU,2023-04-03 20:03:05
508,las rosas,-32.4766,-61.5804,23.11,72,71,2.43,AR,2023-04-03 20:03:05
509,fairview,40.8126,-73.999,18.47,50,0,9.26,US,2023-04-03 20:03:06
510,misratah,32.3754,15.0925,16.54,62,3,10.13,LY,2023-04-03 20:03:06
511,zhuhai,22.2769,113.5678,22.88,100,40,5.14,CN,2023-04-03 20:03:06
512,sembe,1.6481,14.5806,22.27,97,97,0.79,CG,2023-04-03 20:03:07
513,zurrieq,35.8311,14.4742,14.98,82,20,11.83,MT,2023-04-03 20:03:07
514,williston,48.147,-103.618,-1.59,74,100,1.79,US,2023-04-03 20:00:06
515,novyy urengoy,66.0833,76.6333,-26.03,95,8,3.71,RU,2023-04-03 20:03:07
516,arawa,-6.2132,155.5367,24.96,92,79,0.92,PG,2023-04-03 20:03:07
517,teahupoo,-17.8333,-149.2667,26.98,72,39,1.27,PF,2023-04-03 20:03:08
518,temba,-25.3803,28.2631,20.61,56,81,2.32,ZA,2023-04-03 20:03:08
519,libreville,0.3925,9.4537,26.54,83,100,3.17,GA,2023-04-03 20:03:09
520,jinxiang,27.4327,120.6062,16.68,86,100,1.03,CN,2023-04-03 20:03:09
521,desaguadero,-16.5656,-69.0417,13.2,50,99,5.65,PE,2023-04-03 20:03:09
522,antalaha,-14.9003,50.2788,24.1,91,30,1.72,MG,2023-04-03 20:03:09
523,kosh-agach,50.0,88.6667,-18.54,70,8,1.68,RU,2023-04-03 20:03:10
524,carupano,10.6678,-63.2585,27.68,68,8,7.51,VE,2023-04-03 20:03:10
525,cairns,-16.9167,145.7667,24.48,97,92,0.51,AU,2023-04-03 20:01:23
526,pelym,61.0108,61.9978,-0.47,97,100,4.03,RU,2023-04-03 20:03:11
527,sitamau,24.0167,75.35,24.79,32,1,3.39,IN,2023-04-03 20:03:11
528,naze,28.3667,129.4833,18.51,63,58,9.33,JP,2023-04-03 19:57:14
529,bozeman,45.6796,-111.0386,1.6,50,0,4.92,US,2023-04-03 20:00:45
530,virginia beach,36.8529,-75.978,23.03,61,100,5.14,US,2023-04-03 19:59:11
531,broken hill,-31.95,141.4333,14.94,35,0,2.93,AU,2023-04-03 19:57:47
532,madera,37.1666,-119.8343,12.46,65,7,8.68,US,2023-04-03 20:03:12
533,quang ngai,15.1167,108.8,23.47,95,10,2.42,VN,2023-04-03 19:56:28
534,pocone,-16.2567,-56.6228,29.09,63,98,1.16,BR,2023-04-03 20:03:13
535,cartagena,10.3997,-75.5144,31.79,58,20,8.75,CO,2023-04-03 20:00:02
536,saint-pierre,-21.3393,55.4781,23.82,83,0,2.57,RE,2023-04-03 20:03:13
537,caraquet,47.7941,-64.9386,0.3,89,82,1.77,CA,2023-04-03 19:59:31
538,belmonte,-15.8631,-38.8828,26.27,76,54,4.8,BR,2023-04-03 20:03:14
539,seoul,37.5683,126.9778,16.78,19,0,4.12,KR,2023-04-03 19:57:42
540,rio grande city,26.3798,-98.8203,34.93,32,94,6.5,US,2023-04-03 20:03:14
541,poso,-1.3959,120.7524,24.46,87,100,1.85,ID,2023-04-03 20:03:14
542,kloulklubed,7.0419,134.2556,24.28,76,68,4.19,PW,2023-04-03 19:59:50
543,santa maria,-29.6842,-53.8069,29.61,42,0,1.54,BR,2023-04-03 20:02:37
544,haines junction,60.7522,-137.5108,-5.03,54,13,1.54,CA,2023-04-03 19:58:25
545,lishan,31.8576,113.2951,10.7,90,100,5.1,CN,2023-04-03 20:03:15
546,aparecida do taboado,-20.0867,-51.0936,29.05,56,1,1.62,BR,2023-04-03 20:02:15
547,nhulunbuy,-12.2333,136.7667,26.34,94,100,0.0,AU,2023-04-03 20:01:27
548,zhezkazgan,47.8043,67.7144,5.86,41,76,7.84,KZ,2023-04-03 20:03:16
549,ghogha,21.6833,72.2833,27.86,51,4,3.67,IN,2023-04-03 20:03:16
550,arman,59.7,150.1667,-17.08,86,13,3.08,RU,2023-04-03 19:58:13
551,fare,-16.7,-151.0167,27.71,69,94,1.94,PF,2023-04-03 19:58:07
552,komsomolskiy,40.4272,71.7189,14.4,67,75,6.17,UZ,2023-04-03 19:59:21
553,kieta,-6.2167,155.6333,26.07,86,67,0.94,PG,2023-04-03 20:03:18
554,bagotville,-28.9833,153.4167,18.13,91,99,4.15,AU,2023-04-03 20:03:19
555,manokwari,-0.8667,134.0833,25.39,81,100,0.97,ID,2023-04-03 20:03:19
556,wamba,8.9333,8.6,29.53,31,68,1.03,NG,2023-04-03 20:03:20
557,liwale,-9.7667,37.9333,20.3,98,5,1.83,TZ,2023-04-03 20:03:20
558,yashkul,46.1711,45.3435,13.27,60,100,4.16,RU,2023-04-03 20:03:20
559,chake chake,-5.2459,39.7666,26.7,82,83,3.2,TZ,2023-04-03 20:03:22
560,hennebont,47.8051,-3.2734,8.3,80,0,1.03,FR,2023-04-03 20:03:22
561,konevo,62.1215,39.3192,-1.73,96,100,3.65,RU,2023-04-03 20:03:22
562,middelburg,-25.7751,29.4648,17.7,49,79,4.6,ZA,2023-04-03 19:59:57
563,matlock,53.1384,-1.5556,7.56,81,14,2.42,GB,2023-04-03 20:02:44
564,beloha,-25.1667,45.05,22.86,88,27,4.61,MG,2023-04-03 19:59:40
565,canto do buriti,-8.11,-42.9444,28.76,61,91,2.02,BR,2023-04-03 20:03:23
566,poum,-20.2333,164.0167,26.78,81,63,4.05,NC,2023-04-03 19:58:00
567,te horo,-40.8084,175.1233,11.46,90,1,0.45,NZ,2023-04-03 20:03:24
568,belaya gora,68.5333,146.4167,-21.25,94,64,2.39,RU,2023-04-03 19:58:58
