City_ID,City,Lat,Lng,Max Temp,Humidity,Cloudiness,Wind Speed,Country,Date
0,yellowknife,62.456,-114.3525,-15.71,60,100,8.23,CA,2023-04-01 15:47:55
1,vaini,-21.2,-175.2,25.09,94,20,2.57,TO,2023-04-01 15:47:55
2,lasa,46.6166,10.7002,13.72,71,99,1.86,IT,2023-04-01 15:47:56
3,punta arenas,-53.15,-70.9167,9.06,57,75,3.6,CL,2023-04-01 15:47:05
4,saint george,37.1041,-113.5841,9.13,52,0,2.06,US,2023-04-01 15:47:08
5,ribeira grande,38.5167,-28.7,18.22,88,75,5.81,PT,2023-04-01 15:47:57
6,georgetown,5.4112,100.3354,29.96,78,20,3.09,MY,2023-04-01 15:46:39
7,ushuaia,-54.8,-68.3,7.81,71,0,2.57,AR,2023-04-01 15:43:01
8,sao filipe,14.8961,-24.4956,26.61,60,0,3.6,CV,2023-04-01 15:47:58
9,butaritari,3.0707,172.7902,27.39,73,100,5.25,KI,2023-04-01 15:47:58
10,upernavik,72.7868,-56.1549,-27.6,95,57,5.44,GL,2023-04-01 15:47:58
11,nantucket,41.2835,-70.0995,11.06,98,100,9.77,US,2023-04-01 15:47:59
12,hermanus,-34.4187,19.2345,22.11,63,0,8.25,ZA,2023-04-01 15:47:59
13,albany,42.6001,-73.9662,14.89,92,100,1.79,US,2023-04-01 15:47:59
14,mataura,-46.1927,168.8643,13.04,92,73,2.44,NZ,2023-04-01 15:47:59
15,palora,-1.7,-77.9333,23.06,58,86,1.45,EC,2023-04-01 15:48:00
16,lagoa,39.05,-27.9833,16.12,88,100,10.1,PT,2023-04-01 15:48:00
17,hervey bay,-25.2986,152.8535,22.76,54,100,2.11,AU,2023-04-01 15:48:00
18,margate,51.3813,1.3862,11.06,86,100,4.47,GB,2023-04-01 15:48:00
19,arandas,20.7,-102.35,21.34,20,44,1.28,MX,2023-04-01 15:48:01
20,east london,-33.0153,27.9116,22.52,78,75,5.14,ZA,2023-04-01 15:48:01
21,sao gabriel da cachoeira,-0.1303,-67.0892,24.89,94,75,1.54,BR,2023-04-01 15:48:01
22,henties bay,-22.116,14.2845,18.28,74,4,4.18,NA,2023-04-01 15:48:02
23,umm lajj,25.0213,37.2685,22.31,51,6,7.21,SA,2023-04-01 15:48:03
24,vila velha,-20.3297,-40.2925,34.41,60,20,3.6,BR,2023-04-01 15:48:03
25,langenburg,49.2544,9.8458,9.32,87,100,9.26,DE,2023-04-01 15:48:03
26,mahebourg,-20.4081,57.7,27.16,74,20,3.09,MU,2023-04-01 15:48:04
27,qaanaaq,77.484,-69.3632,-22.51,72,6,1.71,GL,2023-04-01 15:48:04
28,rio gallegos,-51.6226,-69.2181,9.03,71,75,9.26,AR,2023-04-01 15:48:04
29,goundi,9.3627,17.366,39.07,17,61,2.18,TD,2023-04-01 15:48:04
30,cocorit,27.5833,-109.9667,14.19,12,14,2.4,MX,2023-04-01 15:48:05
31,ahipara,-35.1667,173.1667,17.83,93,100,1.43,NZ,2023-04-01 15:48:05
32,talnakh,69.4865,88.3972,-8.98,94,100,8.2,RU,2023-04-01 15:48:06
33,dongying,37.4564,118.4856,14.09,35,2,3.79,CN,2023-04-01 15:48:06
34,provideniya,64.3833,-173.3,-5.68,97,97,4.65,RU,2023-04-01 15:48:06
35,qena,26.1615,32.7183,24.18,12,0,1.85,EG,2023-04-01 15:48:06
36,avarua,-21.2078,-159.775,23.03,100,75,0.51,CK,2023-04-01 15:48:07
37,mount isa,-20.7333,139.5,24.87,38,75,4.12,AU,2023-04-01 15:48:07
38,bluff,-46.6,168.3333,13.22,87,43,8.87,NZ,2023-04-01 15:48:07
39,ahar,38.4774,47.0699,3.08,62,98,1.3,IR,2023-04-01 15:48:08
40,vestmannaeyjar,63.4427,-20.2734,5.55,81,75,12.86,IS,2023-04-01 15:48:08
41,winnemucca,40.973,-117.7357,4.03,56,40,3.6,US,2023-04-01 15:48:08
42,busselton,-33.65,115.3333,16.33,82,7,4.08,AU,2023-04-01 15:48:09
43,mar del plata,-38.0023,-57.5575,19.9,59,75,2.06,AR,2023-04-01 15:48:09
44,severo-kurilsk,50.6789,156.125,-0.43,82,7,5.89,RU,2023-04-01 15:48:09
45,quatre cocos,-20.2078,57.7625,27.06,77,24,5.43,MU,2023-04-01 15:48:10
46,lima,-12.0432,-77.0282,25.14,73,40,3.09,PE,2023-04-01 15:43:29
47,danville,36.586,-79.395,18.36,94,100,4.63,US,2023-04-01 15:42:04
48,tasiilaq,65.6145,-37.6368,-0.91,81,99,2.36,GL,2023-04-01 15:48:10
49,tuktoyaktuk,69.4541,-133.0374,-26.0,76,20,6.17,CA,2023-04-01 15:48:10
50,touros,-5.1989,-35.4608,29.76,64,89,5.68,BR,2023-04-01 15:47:53
51,lavrentiya,65.5833,-171.0,-4.22,96,100,2.72,RU,2023-04-01 15:48:11
52,saldanha,-33.0117,17.9442,28.03,77,5,6.37,ZA,2023-04-01 15:48:11
53,port elizabeth,-33.918,25.5701,25.05,60,0,4.63,ZA,2023-04-01 15:48:11
54,victoria,22.2855,114.1577,22.19,92,100,4.47,HK,2023-04-01 15:47:55
55,bambous virieux,-20.3428,57.7575,27.14,74,20,3.09,MU,2023-04-01 15:48:11
56,vao,-22.6667,167.4833,25.53,83,38,4.84,NC,2023-04-01 15:48:12
57,burlatskoye,45.0564,43.635,8.64,48,100,2.0,RU,2023-04-01 15:48:12
58,rikitea,-23.1203,-134.9692,26.3,81,40,6.65,PF,2023-04-01 15:48:12
59,vardo,70.3705,31.1107,-2.01,93,100,14.4,NO,2023-04-01 15:48:13
60,anapolis,-16.3267,-48.9528,28.78,44,40,3.09,BR,2023-04-01 15:39:26
61,dedza,-14.3779,34.3332,15.07,97,100,0.44,MW,2023-04-01 15:48:13
62,jamestown,42.097,-79.2353,17.23,43,0,7.72,US,2023-04-01 15:48:13
63,tangping,22.0265,111.9323,20.62,96,100,1.61,CN,2023-04-01 15:48:13
64,thompson,55.7435,-97.8558,-13.91,61,20,3.6,CA,2023-04-01 15:45:18
65,olafsvik,64.8945,-23.7142,4.13,84,95,7.58,IS,2023-04-01 15:48:14
66,westport,41.1415,-73.3579,15.17,91,100,2.68,US,2023-04-01 15:44:07
67,meulaboh,4.1363,96.1285,25.81,82,78,1.12,ID,2023-04-01 15:48:15
68,kodiak,57.79,-152.4072,0.73,47,0,11.83,US,2023-04-01 15:48:15
69,bredasdorp,-34.5322,20.0403,19.6,72,0,5.36,ZA,2023-04-01 15:48:15
70,faanui,-16.4833,-151.75,27.67,73,37,2.03,PF,2023-04-01 15:48:15
71,fort nelson,58.8053,-122.7002,-7.81,82,100,2.57,CA,2023-04-01 15:48:16
72,elko,41.0002,-115.5012,3.19,61,100,4.02,US,2023-04-01 15:45:18
73,necochea,-38.5473,-58.7368,17.39,44,100,4.73,AR,2023-04-01 15:38:44
74,hithadhoo,-0.6,73.0833,28.32,68,77,2.14,MV,2023-04-01 15:48:16
75,new norfolk,-42.7826,147.0587,11.72,71,99,0.89,AU,2023-04-01 15:48:17
76,kapaa,22.0752,-159.319,22.18,94,100,3.09,US,2023-04-01 15:48:17
77,denpasar,-8.65,115.2167,26.81,94,40,1.03,ID,2023-04-01 15:41:26
78,bethel,41.3712,-73.414,15.36,88,100,5.66,US,2023-04-01 15:48:18
79,ayan,56.45,138.1667,-3.7,95,97,1.3,RU,2023-04-01 15:48:18
80,prince rupert,54.3161,-130.3201,3.83,93,75,3.09,CA,2023-04-01 15:48:18
81,rocha,-34.4833,-54.3333,22.0,41,46,5.86,UY,2023-04-01 15:48:19
82,anadyr,64.75,177.4833,-12.22,84,28,12.0,RU,2023-04-01 15:48:19
83,leningradskiy,69.3833,178.4167,-13.93,90,100,11.02,RU,2023-04-01 15:48:19
84,castro,-24.7911,-50.0119,24.91,62,69,3.29,BR,2023-04-01 15:48:20
85,gamba,-2.65,10.0,24.69,84,100,0.18,GA,2023-04-01 15:48:20
86,aklavik,68.2191,-135.0107,-26.0,76,40,1.54,CA,2023-04-01 15:48:21
87,acapulco,16.8634,-99.8901,27.9,54,0,2.57,MX,2023-04-01 15:48:21
88,pevek,69.7008,170.3133,-20.94,98,100,7.5,RU,2023-04-01 15:48:22
89,itacoatiara,-3.1431,-58.4442,23.36,98,100,2.47,BR,2023-04-01 15:48:22
90,khatanga,71.9667,102.5,-7.26,94,100,9.46,RU,2023-04-01 15:48:23
91,cape town,-33.9258,18.4232,21.6,70,0,7.2,ZA,2023-04-01 15:46:59
92,hay river,60.8156,-115.7999,-10.01,79,100,4.63,CA,2023-04-01 15:45:18
93,grajau,-5.8194,-46.1386,29.24,67,100,0.98,BR,2023-04-01 15:45:38
94,pachino,36.7186,15.0907,17.07,74,100,7.33,IT,2023-04-01 15:48:24
95,dawlatabad,36.4141,64.9053,22.48,40,76,6.96,AF,2023-04-01 15:48:24
96,dikson,73.5069,80.5464,-8.71,90,100,8.37,RU,2023-04-01 15:48:24
97,puri,19.8,85.85,24.29,78,72,8.49,IN,2023-04-01 15:48:24
98,kaitangata,-46.2817,169.8464,11.24,90,99,2.63,NZ,2023-04-01 15:48:24
99,tallinn,59.437,24.7535,4.06,56,0,4.63,EE,2023-04-01 15:48:25
100,hobyo,5.3505,48.5268,28.93,75,79,5.88,SO,2023-04-01 15:48:25
101,lazaro cardenas,17.9583,-102.2,28.88,46,0,1.03,MX,2023-04-01 15:48:25
102,saskylakh,71.9167,114.0833,-11.03,90,100,7.65,RU,2023-04-01 15:48:25
103,kirakira,-10.4544,161.9205,26.01,84,100,1.81,SB,2023-04-01 15:48:26
104,miquelon,47.0975,-56.3814,5.0,83,84,5.98,PM,2023-04-01 15:48:23
105,hamilton,39.1834,-84.5333,16.97,57,6,6.26,US,2023-04-01 15:45:19
106,port blair,11.6667,92.75,28.02,74,40,2.06,IN,2023-04-01 15:48:26
107,puerto ayora,-0.7393,-90.3518,29.98,88,60,2.68,EC,2023-04-01 15:47:39
108,puerto baquerizo moreno,-0.9,-89.6,29.55,70,20,4.12,EC,2023-04-01 15:48:27
109,barrow,71.2906,-156.7887,-16.99,100,100,2.57,US,2023-04-01 15:48:27
110,lerwick,60.1545,-1.1494,8.0,72,99,4.95,GB,2023-04-01 15:48:27
111,tretten,61.3142,10.3007,2.16,74,7,0.29,NO,2023-04-01 15:48:27
112,iqaluit,63.7506,-68.5145,-12.15,79,100,4.12,CA,2023-04-01 15:48:28
113,soria,41.6667,-2.6667,9.07,59,98,8.86,ES,2023-04-01 15:48:28
114,diego de almagro,-26.3667,-70.05,26.58,34,3,3.95,CL,2023-04-01 15:43:35
115,hobart,-42.8794,147.3294,11.92,80,99,5.66,AU,2023-04-01 15:48:28
116,evans,33.5337,-82.1307,23.06,75,75,7.72,US,2023-04-01 15:48:28
117,tomatlan,19.9333,-105.25,29.46,25,96,2.03,MX,2023-04-01 15:48:29
118,hilo,19.7297,-155.09,25.16,91,100,2.06,US,2023-04-01 15:48:29
119,tecoanapa,16.5167,-98.75,29.4,47,73,2.09,MX,2023-04-01 15:48:29
120,narsaq,60.9167,-46.05,-0.88,59,92,0.99,GL,2023-04-01 15:48:29
121,ixtapa,20.7,-105.2,20.57,52,75,3.09,MX,2023-04-01 15:48:30
122,asfi,32.2994,-9.2372,21.75,61,27,11.96,MA,2023-04-01 15:48:30
123,coari,-4.085,-63.1414,27.55,84,97,1.01,BR,2023-04-01 15:48:30
124,shiyan,32.6475,110.7781,18.31,66,43,2.94,CN,2023-04-01 15:48:30
125,port alfred,-33.5906,26.891,21.77,80,1,1.34,ZA,2023-04-01 15:48:31
126,sabang,5.8933,95.3214,28.56,68,84,1.13,ID,2023-04-01 15:48:31
127,karratha,-20.7377,116.8463,28.3,69,28,2.2,AU,2023-04-01 15:48:31
128,belmonte,-15.8631,-38.8828,29.69,61,13,4.65,BR,2023-04-01 15:48:32
129,havoysund,70.9963,24.6622,-0.87,66,100,9.69,NO,2023-04-01 15:48:32
130,parrita,9.5201,-84.3225,31.13,45,14,2.4,CR,2023-04-01 15:48:32
131,alta floresta,-9.8756,-56.0861,29.9,74,75,1.03,BR,2023-04-01 15:48:32
132,fengxian,34.7039,116.5872,11.37,69,0,4.15,CN,2023-04-01 15:48:32
133,namatanai,-3.6667,152.4333,24.17,91,100,0.61,PG,2023-04-01 15:48:33
134,sioux lookout,50.1001,-91.917,-5.96,38,20,1.54,CA,2023-04-01 15:48:33
135,astana,51.1801,71.446,-2.03,59,0,5.0,KZ,2023-04-01 15:48:33
136,linxia,35.6003,103.2064,11.86,43,96,5.77,CN,2023-04-01 15:48:33
137,bugulma,54.55,52.8,2.34,89,100,4.26,RU,2023-04-01 15:48:33
138,chivay,-15.6383,-71.6011,14.03,50,97,3.68,PE,2023-04-01 15:48:34
139,yar-sale,66.8333,70.8333,1.15,98,100,8.91,RU,2023-04-01 15:48:34
140,carnarvon,-24.8667,113.6333,24.94,73,93,5.32,AU,2023-04-01 15:48:34
141,plettenberg bay,-34.0527,23.3716,18.76,71,0,3.06,ZA,2023-04-01 15:48:34
142,atuona,-9.8,-139.0333,26.85,77,80,7.05,PF,2023-04-01 15:48:35
143,ponta do sol,32.6667,-17.1,24.84,69,4,4.62,PT,2023-04-01 15:48:35
144,tautira,-17.7333,-149.15,28.02,74,20,4.23,PF,2023-04-01 15:48:36
145,phaltan,17.9833,74.4333,26.74,28,41,3.81,IN,2023-04-01 15:48:36
146,mecca,21.4267,39.8261,25.75,36,6,5.33,SA,2023-04-01 15:48:36
147,roma,43.2128,-75.4557,19.1,59,0,4.63,US,2023-04-01 15:47:50
148,nikolskoye,59.7035,30.7861,0.94,96,100,3.14,RU,2023-04-01 15:48:36
149,lensk,60.7253,114.9278,-17.55,98,92,1.21,RU,2023-04-01 15:48:37
150,porto novo,6.4965,2.6036,30.9,62,90,5.58,BJ,2023-04-01 15:48:37
151,lebu,-37.6167,-73.65,17.0,65,49,4.01,CL,2023-04-01 15:48:37
152,faya,18.3851,42.4509,20.06,76,79,3.14,SA,2023-04-01 15:48:37
153,salalah,17.0151,54.0924,28.05,78,75,4.63,OM,2023-04-01 15:48:37
154,knysna,-34.0363,23.0471,20.31,58,0,3.27,ZA,2023-04-01 15:45:35
155,iquique,-20.2208,-70.1431,27.02,69,75,2.55,CL,2023-04-01 15:47:39
156,hangu,39.2489,117.7892,13.02,57,33,5.58,CN,2023-04-01 15:48:38
157,mapiripan,2.8892,-72.1256,23.91,87,100,1.62,CO,2023-04-01 15:48:38
158,clyde river,70.4692,-68.5914,-21.87,77,0,5.14,CA,2023-04-01 15:48:38
159,baoying,33.2292,119.3092,9.42,64,0,2.76,CN,2023-04-01 15:48:39
160,carberry,49.8689,-99.3602,-9.87,77,72,4.33,CA,2023-04-01 15:48:39
161,klaksvik,62.2266,-6.589,7.51,86,100,10.54,FO,2023-04-01 15:48:39
162,porto santo,33.072,-16.3415,21.21,64,20,6.17,PT,2023-04-01 15:48:39
163,san patricio,28.017,-97.5169,27.97,65,98,2.77,US,2023-04-01 15:48:39
164,minot,48.2325,-101.2963,-1.66,69,0,7.2,US,2023-04-01 15:48:40
165,huarmey,-10.0681,-78.1522,26.52,76,75,3.93,PE,2023-04-01 15:48:40
166,ossora,59.2353,163.0719,-6.59,96,99,1.69,RU,2023-04-01 15:48:40
167,mezen,65.8522,44.24,-10.94,95,67,1.04,RU,2023-04-01 15:48:40
168,mehamn,71.0357,27.8492,-1.05,74,100,12.86,NO,2023-04-01 15:48:40
169,ilhabela,-23.7781,-45.3581,28.47,66,1,1.98,BR,2023-04-01 15:48:41
170,saint-philippe,-21.3585,55.7679,26.77,86,58,4.99,RE,2023-04-01 15:48:41
171,cockburn town,21.4612,-71.1419,26.98,74,20,5.14,TC,2023-04-01 15:48:41
172,cherskiy,68.75,161.3,-32.35,100,98,1.06,RU,2023-04-01 15:48:41
173,husavik,66.0449,-17.3389,2.34,99,98,0.96,IS,2023-04-01 15:48:41
174,shenjiamen,29.9576,122.298,11.69,75,0,1.57,CN,2023-04-01 15:48:42
175,kloulklubed,7.0419,134.2556,25.28,68,99,0.5,PW,2023-04-01 15:48:42
176,hofn,64.2539,-15.2082,5.57,73,2,3.88,IS,2023-04-01 15:48:42
177,pochutla,15.7432,-96.4661,31.57,42,13,2.21,MX,2023-04-01 15:48:42
178,marystown,47.1666,-55.1483,2.24,66,79,6.57,CA,2023-04-01 15:48:43
179,nalut,30.3333,10.85,28.25,8,0,4.06,LY,2023-04-01 15:48:43
180,murashi,59.3999,48.9615,-0.42,94,78,2.33,RU,2023-04-01 15:48:43
181,athabasca,54.7169,-113.2854,-1.84,92,100,2.46,CA,2023-04-01 15:45:18
182,loa janan,-0.583,117.095,23.46,92,100,0.6,ID,2023-04-01 15:48:43
183,byron bay,-28.65,153.6167,15.95,84,6,1.88,AU,2023-04-01 15:48:44
184,puerto del rosario,28.5004,-13.8627,21.86,68,0,9.26,ES,2023-04-01 15:48:45
185,dingle,10.9995,122.6711,25.01,84,71,2.37,PH,2023-04-01 15:48:45
186,tuatapere,-46.1333,167.6833,11.71,94,68,5.21,NZ,2023-04-01 15:48:45
187,coahuayana,18.7333,-103.6833,30.69,23,45,1.35,MX,2023-04-01 15:48:45
188,chuy,-33.6971,-53.4616,21.68,47,27,6.21,UY,2023-04-01 15:48:45
189,comodoro rivadavia,-45.8667,-67.5,22.92,28,0,14.4,AR,2023-04-01 15:48:45
190,san jeronimo,-11.9472,-75.2829,9.05,91,100,1.62,PE,2023-04-01 15:48:46
191,trelew,-43.249,-65.3051,25.47,23,65,11.68,AR,2023-04-01 15:48:46
192,otane,-39.8833,176.6333,18.89,92,100,1.07,NZ,2023-04-01 15:48:46
193,airai,-8.9266,125.4092,16.1,96,100,0.42,TL,2023-04-01 15:48:46
194,sibolga,1.7427,98.7792,24.54,91,100,1.9,ID,2023-04-01 15:48:47
195,novyy urengoy,66.0833,76.6333,0.62,91,100,10.45,RU,2023-04-01 15:47:34
196,labuhan,-6.8844,112.2051,24.95,85,100,3.89,ID,2023-04-01 15:48:47
197,esperance,-33.8667,121.9,18.48,78,99,4.99,AU,2023-04-01 15:48:47
198,synya,65.3718,58.0387,0.8,98,100,5.05,RU,2023-04-01 15:48:47
199,chabahar,25.2919,60.643,25.32,68,0,4.1,IR,2023-04-01 15:48:48
200,atasu,48.6814,71.6433,-1.54,60,0,7.25,KZ,2023-04-01 15:48:48
201,emerald,-23.5333,148.1667,21.3,67,73,2.89,AU,2023-04-01 15:48:48
202,ust-kulom,61.6864,53.6902,1.61,94,100,4.41,RU,2023-04-01 15:48:48
203,lethem,3.3803,-59.7968,34.96,32,69,5.52,GY,2023-04-01 15:48:48
204,grand-santi,4.25,-54.3833,31.65,44,100,1.97,GF,2023-04-01 15:48:49
205,fortuna,40.5982,-124.1573,10.37,84,100,4.47,US,2023-04-01 15:48:49
206,de-kastri,51.4667,140.7833,-2.61,99,35,1.72,RU,2023-04-01 15:48:49
207,birjand,32.8663,59.2211,19.26,19,20,2.06,IR,2023-04-01 15:48:49
208,dahra,36.2546,0.8519,18.04,52,100,2.18,DZ,2023-04-01 15:48:49
209,tucurui,-3.7661,-49.6725,28.66,71,100,1.38,BR,2023-04-01 15:42:01
210,mazagao,-0.115,-51.2894,29.03,76,85,1.99,BR,2023-04-01 15:48:50
211,bajil,15.0584,43.2851,28.55,64,85,4.35,YE,2023-04-01 15:48:50
212,whitehorse,60.7161,-135.0538,-2.33,81,75,1.03,CA,2023-04-01 15:47:38
213,paita,-5.0892,-81.1144,28.32,68,89,1.82,PE,2023-04-01 15:48:50
214,pangnirtung,66.1451,-65.7125,-13.0,52,75,2.06,CA,2023-04-01 15:48:51
215,chokurdakh,70.6333,147.9167,-31.74,100,95,2.94,RU,2023-04-01 15:48:51
216,vidim,56.4088,103.1106,-17.03,98,80,1.07,RU,2023-04-01 15:48:51
217,ugoofaaru,5.6667,73.0,28.05,72,36,4.11,MV,2023-04-01 15:48:51
218,letterkenny,54.95,-7.7333,9.96,90,100,5.61,IE,2023-04-01 15:48:51
219,tabas,33.5959,56.9244,26.12,17,76,2.06,IR,2023-04-01 15:48:52
220,rudnichnyy,59.617,52.4703,2.38,86,94,5.23,RU,2023-04-01 15:48:52
221,bonthe,7.5264,-12.505,30.24,62,68,6.31,SL,2023-04-01 15:48:52
222,grindavik,63.8424,-22.4338,6.26,81,75,13.38,IS,2023-04-01 15:48:52
223,yulara,-25.2406,130.9889,17.82,70,100,4.09,AU,2023-04-01 15:48:52
224,floro,61.5996,5.0328,9.04,46,22,3.09,NO,2023-04-01 15:48:53
225,podyuga,61.095,40.8647,-0.48,95,100,0.28,RU,2023-04-01 15:48:53
226,beringovskiy,63.05,179.3167,-8.13,75,67,8.96,RU,2023-04-01 15:48:53
227,trincomalee,8.5711,81.2335,27.18,81,1,3.99,LK,2023-04-01 15:48:53
228,hohhot,40.8106,111.6522,16.16,41,20,5.0,CN,2023-04-01 15:48:53
229,naze,28.3667,129.4833,18.51,87,54,2.96,JP,2023-04-01 15:48:53
230,mount gambier,-37.8333,140.7667,8.66,84,17,0.77,AU,2023-04-01 15:48:54
231,katsuura,35.1333,140.3,15.2,74,100,5.33,JP,2023-04-01 15:48:54
232,college,64.8569,-147.8028,-11.82,73,100,2.06,US,2023-04-01 15:45:10
233,puerto ayacucho,5.6639,-67.6236,25.44,80,100,3.09,VE,2023-04-01 15:48:54
234,tiksi,71.6872,128.8694,-18.44,83,49,9.07,RU,2023-04-01 15:48:54
235,arraial do cabo,-22.9661,-42.0278,28.98,65,40,4.12,BR,2023-04-01 15:48:55
236,guerrero negro,27.9769,-114.0611,16.12,65,2,4.51,MX,2023-04-01 15:48:55
237,kruisfontein,-34.0033,24.7314,23.82,61,2,3.94,ZA,2023-04-01 15:48:55
238,tessalit,20.1986,1.0114,33.9,4,0,5.57,ML,2023-04-01 15:48:55
239,thiadiaye,14.4205,-16.7056,37.45,14,0,2.65,SN,2023-04-01 15:48:56
240,ajdabiya,30.7554,20.2263,24.02,17,2,2.95,LY,2023-04-01 15:48:56
241,raahe,64.6833,24.4833,-0.95,93,41,2.33,FI,2023-04-01 15:48:56
242,storforshei,66.4043,14.5233,2.88,44,75,3.09,NO,2023-04-01 15:48:56
243,maltahohe,-24.8333,16.9833,27.86,10,0,8.37,NA,2023-04-01 15:48:56
244,hibbing,47.4272,-92.9377,-3.02,28,0,4.63,US,2023-04-01 15:48:56
245,lokoja,7.8024,6.743,38.94,22,53,0.72,NG,2023-04-01 15:48:57
246,jiangkou,25.4872,119.1986,15.62,89,5,1.58,CN,2023-04-01 15:48:57
247,ibia,-19.4783,-46.5389,29.39,53,100,1.86,BR,2023-04-01 15:45:03
248,dakar,14.6937,-17.4441,37.49,26,0,3.09,SN,2023-04-01 15:48:57
249,nome,64.5011,-165.4064,-3.96,100,100,6.69,US,2023-04-01 15:48:57
250,cabo san lucas,22.8909,-109.9124,23.06,69,40,1.03,MX,2023-04-01 15:45:05
251,sorland,67.667,12.6934,2.92,55,92,7.56,NO,2023-04-01 15:48:58
252,lata,40.1629,-8.3327,16.71,91,100,2.43,PT,2023-04-01 15:48:58
253,dhone,15.4167,77.8833,31.33,23,46,2.19,IN,2023-04-01 15:48:58
254,petropavlovsk-kamchatskiy,53.0452,158.6483,-3.67,74,0,3.0,RU,2023-04-01 15:48:58
255,khingansk,49.1167,131.1833,2.63,50,97,3.55,RU,2023-04-01 15:48:58
256,juba,4.8517,31.5825,31.05,36,85,1.95,SS,2023-04-01 15:48:59
257,maniitsoq,65.4167,-52.9,-6.34,54,44,0.66,GL,2023-04-01 15:48:59
258,alofi,-19.0595,-169.9187,24.94,88,16,4.12,NU,2023-04-01 15:48:59
259,awjilah,29.1081,21.2869,25.65,13,0,1.24,LY,2023-04-01 15:48:59
260,ilulissat,69.2167,-51.1,-11.99,61,0,1.54,GL,2023-04-01 15:48:59
261,opunake,-39.4556,173.8583,18.8,92,91,5.08,NZ,2023-04-01 15:49:00
262,brooks,50.5834,-111.8851,1.99,69,74,4.12,CA,2023-04-01 15:49:00
263,port hardy,50.6996,-127.4199,4.0,100,75,3.09,CA,2023-04-01 15:45:20
264,wucheng,29.6008,118.175,15.36,75,1,0.9,CN,2023-04-01 15:49:00
265,dwarka,22.2394,68.9678,25.31,73,31,5.84,IN,2023-04-01 15:49:00
266,washougal,45.5826,-122.3534,5.93,93,100,6.69,US,2023-04-01 15:49:01
267,orsha,54.5153,30.4053,6.31,98,100,3.5,BY,2023-04-01 15:49:01
268,kichera,55.9375,110.0997,-16.66,86,44,3.2,RU,2023-04-01 15:49:01
269,tateyama,34.9833,139.8667,15.07,79,67,5.7,JP,2023-04-01 15:49:01
270,hami,42.8,93.45,2.23,26,41,6.86,CN,2023-04-01 15:49:02
271,pimentel,-6.8367,-79.9342,28.16,69,20,4.63,PE,2023-04-01 15:49:02
272,voznesenye,61.0106,35.4781,-1.27,97,100,1.93,RU,2023-04-01 15:49:02
273,broome,42.2506,-75.833,19.27,59,0,8.23,US,2023-04-01 15:49:02
274,ambon,-3.6954,128.1814,25.08,94,40,4.12,ID,2023-04-01 15:49:03
275,qaqortoq,60.7167,-46.0333,-2.82,77,90,2.64,GL,2023-04-01 15:49:03
276,manakara,-22.1333,48.0167,25.07,81,83,2.25,MG,2023-04-01 15:49:03
277,srandakan,-7.9386,110.2506,25.05,86,100,2.67,ID,2023-04-01 15:49:04
278,san pietro vernotico,40.4853,17.9997,19.74,59,20,2.57,IT,2023-04-01 15:49:04
279,kutum,14.2,24.6667,27.4,10,48,5.34,SD,2023-04-01 15:49:04
280,encarnacion,-27.3333,-55.9,24.29,60,0,4.63,PY,2023-04-01 15:49:05
281,praia da vitoria,38.7333,-27.0667,20.14,73,20,7.8,PT,2023-04-01 15:49:06
282,finschhafen,-6.6024,147.8681,25.21,87,100,4.79,PG,2023-04-01 15:49:06
283,kununurra,-15.7667,128.7333,26.99,78,71,3.09,AU,2023-04-01 15:49:06
284,keti bandar,24.1447,67.4497,25.45,66,1,6.36,PK,2023-04-01 15:49:07
285,tombouctou,20.0,-3.0,35.84,4,0,3.57,ML,2023-04-01 15:49:07
286,dahuk,36.8695,42.994,6.12,63,97,1.67,IQ,2023-04-01 15:49:07
287,nizhniy lomov,53.5304,43.6766,6.75,77,100,4.48,RU,2023-04-01 15:49:08
288,tual,-5.6667,132.75,28.37,74,100,1.74,ID,2023-04-01 15:49:08
289,geraldton,-28.7667,114.6,21.23,83,75,3.6,AU,2023-04-01 15:46:04
290,tilichiki,60.4667,166.1,-10.51,98,97,1.07,RU,2023-04-01 15:49:08
291,rio grande city,26.3798,-98.8203,24.93,73,100,4.22,US,2023-04-01 15:49:08
292,abu dhabi,24.4667,54.3667,25.53,73,0,6.17,AE,2023-04-01 15:45:24
293,seoul,37.5683,126.9778,13.78,57,40,1.54,KR,2023-04-01 15:45:37
294,longyearbyen,78.2186,15.6401,-11.09,62,75,6.17,SJ,2023-04-01 15:49:09
295,galesong,-5.3166,119.3661,24.01,86,98,2.14,ID,2023-04-01 15:49:09
296,soligalich,59.0778,42.2864,1.59,98,100,2.42,RU,2023-04-01 15:49:09
297,hualmay,-11.0964,-77.6139,25.79,76,96,3.51,PE,2023-04-01 15:49:10
298,ozernovskiy,51.5,156.5167,-1.81,81,0,3.85,RU,2023-04-01 15:49:10
299,santa rosalia,27.3167,-112.2833,17.59,37,3,1.89,MX,2023-04-01 15:49:10
300,sitrah,26.1547,50.6206,21.08,52,0,10.8,BH,2023-04-01 15:49:11
301,arman,59.7,150.1667,-4.41,97,100,1.68,RU,2023-04-01 15:49:11
302,hasaki,35.7333,140.8333,14.22,54,34,4.85,JP,2023-04-01 15:49:11
303,taylorville,39.5489,-89.2945,5.1,70,100,15.43,US,2023-04-01 15:39:48
304,gulu,2.7746,32.299,21.53,74,70,1.59,UG,2023-04-01 15:49:12
305,boca do acre,-8.7522,-67.3978,24.07,96,100,1.1,BR,2023-04-01 15:49:12
306,yilan,24.757,121.753,18.92,96,56,0.77,TW,2023-04-01 15:49:12
307,biltine,14.5333,20.9167,35.64,8,22,4.11,TD,2023-04-01 15:49:12
308,san carlos de bariloche,-41.1456,-71.3082,15.86,51,20,11.83,AR,2023-04-01 15:46:56
309,hawera,-39.5917,174.2833,14.42,95,79,2.95,NZ,2023-04-01 15:49:13
310,hrodna,53.6884,23.8258,7.31,96,100,3.56,BY,2023-04-01 15:49:13
311,uyuni,-20.4597,-66.825,14.42,41,21,0.79,BO,2023-04-01 15:49:13
312,amahai,-3.3333,128.9167,25.73,87,97,1.83,ID,2023-04-01 15:49:14
313,porto murtinho,-21.6989,-57.8825,35.31,39,5,1.22,BR,2023-04-01 15:49:14
314,honningsvag,70.9821,25.9704,-1.14,69,100,11.32,NO,2023-04-01 15:49:14
315,nikel,69.4128,30.222,-2.9,82,100,8.89,RU,2023-04-01 15:49:14
316,oulu,65.0124,25.4682,-0.94,64,20,4.12,FI,2023-04-01 15:49:14
317,bilibino,68.0546,166.4372,-26.45,100,100,1.37,RU,2023-04-01 15:49:15
318,damara,4.9608,18.7035,33.95,30,54,2.56,CF,2023-04-01 15:49:15
319,shimoda,34.6667,138.95,14.58,84,100,4.96,JP,2023-04-01 15:49:15
320,barcarena,-1.5058,-48.6258,29.03,94,100,1.52,BR,2023-04-01 15:49:15
321,tura,25.5198,90.2201,17.7,88,12,0.98,IN,2023-04-01 15:49:15
322,sao joao da barra,-21.6403,-41.0511,33.05,60,45,1.16,BR,2023-04-01 15:49:16
323,sola,-13.8833,167.55,28.04,73,47,3.74,VU,2023-04-01 15:42:14
324,aras,42.5617,-2.356,11.23,54,0,4.63,ES,2023-04-01 15:49:16
325,saint-pierre,-21.3393,55.4781,26.82,74,0,3.6,RE,2023-04-01 15:49:16
326,abu samrah,35.3029,37.1841,12.47,65,32,5.81,SY,2023-04-01 15:49:17
327,manaure,11.7751,-72.4445,30.34,52,69,10.77,CO,2023-04-01 15:49:17
328,padang,-0.9492,100.3543,25.03,86,100,1.77,ID,2023-04-01 15:49:17
329,general pico,-35.6566,-63.7568,21.08,26,18,7.29,AR,2023-04-01 15:49:17
330,upata,8.0086,-62.3989,30.01,46,98,4.05,VE,2023-04-01 15:49:18
331,beloha,-25.1667,45.05,22.78,88,72,4.57,MG,2023-04-01 15:49:18
332,bontang,0.1333,117.5,25.41,80,100,1.95,ID,2023-04-01 15:49:18
333,santa cruz,-17.8,-63.1667,24.7,88,75,6.17,BO,2023-04-01 15:46:16
334,alice springs,-23.7,133.8833,16.75,94,100,0.51,AU,2023-04-01 15:47:35
335,nouakchott,18.0858,-15.9785,40.96,21,0,2.35,MR,2023-04-01 15:49:19
336,la ronge,55.1001,-105.2842,-5.86,79,100,5.14,CA,2023-04-01 15:49:19
337,ambilobe,-13.2,49.05,24.81,91,100,0.88,MG,2023-04-01 15:49:20
338,port-cartier,50.0334,-66.8654,0.42,89,100,5.2,CA,2023-04-01 15:49:20
339,san cristobal,7.7669,-72.225,19.1,57,100,3.23,VE,2023-04-01 15:49:20
340,rodrigues alves,-7.738,-72.6509,25.11,78,100,0.99,BR,2023-04-01 15:49:20
341,banfora,10.6333,-4.7667,38.83,10,3,2.67,BF,2023-04-01 15:49:21
342,saint anthony,45.0205,-93.218,-0.13,75,0,5.14,US,2023-04-01 15:49:21
343,bengkulu,-3.8004,102.2655,23.94,90,100,1.83,ID,2023-04-01 15:49:21
344,bathsheba,13.2167,-59.5167,28.34,69,75,8.23,BB,2023-04-01 15:49:21
345,moron,-34.6534,-58.6198,21.0,57,5,2.74,AR,2023-04-01 15:49:22
346,trofarello,44.9837,7.7452,22.15,17,0,7.2,IT,2023-04-01 15:49:22
347,kemi,65.8596,24.8228,-0.13,55,0,3.09,FI,2023-04-01 15:49:22
348,port lincoln,-34.7333,135.8667,14.49,66,21,5.65,AU,2023-04-01 15:49:22
349,tanda,26.55,82.65,20.8,74,79,2.3,IN,2023-04-01 15:46:50
350,tam ky,15.5667,108.4833,23.75,94,95,1.84,VN,2023-04-01 15:49:23
351,matagami,49.7502,-77.6328,-6.94,68,0,8.23,CA,2023-04-01 15:47:31
352,abyek,36.0667,50.55,5.78,37,100,4.7,IR,2023-04-01 15:49:23
353,kharan,28.5833,65.4167,26.32,25,3,6.04,PK,2023-04-01 15:49:23
354,inongo,-1.95,18.2667,26.94,70,24,0.57,CD,2023-04-01 15:49:23
355,itinga,-16.6131,-41.7653,37.77,17,1,0.97,BR,2023-04-01 15:49:24
356,paragominas,-2.9667,-47.4833,22.58,98,100,0.74,BR,2023-04-01 15:49:24
357,torbay,47.6666,-52.7314,6.05,61,40,5.66,CA,2023-04-01 15:49:24
358,turinskaya sloboda,57.6232,64.3858,2.46,70,93,7.48,RU,2023-04-01 15:49:24
359,hyeres,43.1167,6.1167,19.36,53,0,12.35,FR,2023-04-01 15:49:24
360,araouane,18.9048,-3.5265,36.15,4,1,4.34,ML,2023-04-01 15:49:25
361,kudahuvadhoo,2.6708,72.8944,28.38,69,57,1.79,MV,2023-04-01 15:49:25
362,la paz,-16.5,-68.15,13.1,57,75,5.14,BO,2023-04-01 15:49:25
363,guiratinga,-16.3494,-53.7583,32.02,48,26,0.4,BR,2023-04-01 15:49:26
364,gold coast,-28.0,153.4333,20.0,94,31,0.0,AU,2023-04-01 15:49:26
365,cerritos,33.8583,-118.0648,16.78,80,0,1.54,US,2023-04-01 15:49:26
366,cidreira,-30.1811,-50.2056,19.39,66,68,7.41,BR,2023-04-01 15:49:26
367,buenavista,8.9769,125.4089,23.8,93,100,1.63,PH,2023-04-01 15:49:27
368,pisco,-13.7,-76.2167,25.01,83,0,3.09,PE,2023-04-01 15:49:27
369,passo fundo,-28.2628,-52.4067,18.14,48,0,2.06,BR,2023-04-01 15:49:27
370,mudbidri,13.0833,74.9833,26.79,74,20,2.57,IN,2023-04-01 15:49:27
371,fairbanks,64.8378,-147.7164,-11.81,75,75,2.06,US,2023-04-01 15:49:28
372,makat,47.6469,53.3463,15.32,17,85,9.64,KZ,2023-04-01 15:49:28
373,belousovka,50.1339,82.5239,-4.53,50,0,9.0,KZ,2023-04-01 15:49:28
374,berlevag,70.8578,29.0864,-1.03,59,100,12.86,NO,2023-04-01 15:49:29
375,komsomolskiy,40.4272,71.7189,18.4,36,91,3.09,UZ,2023-04-01 15:49:29
376,kavaratti,10.5669,72.642,27.67,68,8,3.57,IN,2023-04-01 15:49:29
377,dubbo,-32.25,148.6167,12.07,71,70,3.09,AU,2023-04-01 15:49:29
378,ponta delgada,37.7333,-25.6667,19.4,72,0,4.63,PT,2023-04-01 15:49:29
379,miles city,46.4083,-105.8406,1.54,80,0,2.57,US,2023-04-01 15:49:30
380,aulla,44.2146,9.9678,16.87,69,30,2.52,IT,2023-04-01 15:49:30
381,pamanukan,-6.2842,107.8106,24.85,90,87,2.31,ID,2023-04-01 15:49:30
382,jibuti,11.5,42.5,28.21,59,100,4.87,DJ,2023-04-01 15:49:30
383,bergen,60.392,5.328,8.23,49,0,4.12,NO,2023-04-01 15:40:31
384,deputatskiy,69.3,139.9,-32.91,99,78,2.44,RU,2023-04-01 15:49:31
385,erdenet,49.0333,104.0833,-13.1,86,100,6.78,MN,2023-04-01 15:47:14
386,ketchikan,55.3422,-131.6461,2.26,93,75,2.57,US,2023-04-01 15:46:06
387,tubmanburg,6.8708,-10.8172,31.58,54,55,4.16,LR,2023-04-01 15:49:31
388,isangel,-19.55,169.2667,26.06,94,20,0.0,VU,2023-04-01 15:49:32
389,carutapera,-1.195,-46.02,23.69,96,100,0.75,BR,2023-04-01 15:49:32
390,sampit,-2.5333,112.95,23.01,97,98,1.11,ID,2023-04-01 15:49:32
391,nizwa,22.9333,57.5333,29.38,20,41,1.2,OM,2023-04-01 15:49:32
392,terney,45.0503,136.6092,0.91,74,1,1.18,RU,2023-04-01 15:49:32
393,lixourion,38.2019,20.4314,18.0,88,20,0.0,GR,2023-04-01 15:49:32
394,kapit,2.0167,112.9333,22.48,99,100,0.12,MY,2023-04-01 15:49:33
395,ouagadougou,12.3642,-1.5383,39.07,7,37,4.12,BF,2023-04-01 15:49:33
396,sept-iles,50.2001,-66.3821,0.59,86,100,6.17,CA,2023-04-01 15:49:33
397,huesca,42.1362,-0.4087,15.38,50,75,9.26,ES,2023-04-01 15:45:03
398,muniz freire,-20.4642,-41.4131,29.64,48,93,1.03,BR,2023-04-01 15:49:33
399,puerto escondido,15.85,-97.0667,29.46,84,0,3.09,MX,2023-04-01 15:49:33
400,cooma,-36.2333,149.1333,4.54,97,8,0.85,AU,2023-04-01 15:49:34
401,ola,59.5833,151.2833,-4.23,95,99,3.43,RU,2023-04-01 15:49:34
402,hambantota,6.1241,81.1185,25.19,94,40,2.57,LK,2023-04-01 15:49:34
403,saint-augustin,51.226,-58.6502,1.5,57,91,4.36,CA,2023-04-01 15:49:35
404,morant bay,17.8815,-76.4093,28.73,69,32,5.7,JM,2023-04-01 15:49:35
405,gornoye loo,43.7129,39.6049,7.88,70,0,2.24,RU,2023-04-01 15:49:35
406,port macquarie,-31.4333,152.9167,16.53,87,35,4.47,AU,2023-04-01 15:47:02
407,cervo,43.6702,-7.4101,14.42,64,48,6.72,ES,2023-04-01 15:40:29
408,lala,7.9745,123.7458,24.26,96,100,0.55,PH,2023-04-01 15:49:36
409,nanortalik,60.1432,-45.2371,-1.87,76,81,4.23,GL,2023-04-01 15:49:36
410,steamboat springs,40.485,-106.8317,1.11,76,0,0.45,US,2023-04-01 15:48:38
411,gannan,47.9147,123.5031,14.51,30,100,3.24,CN,2023-04-01 15:49:36
412,korla,41.7597,86.1469,10.06,15,0,6.39,CN,2023-04-01 15:48:07
413,sitka,57.0531,-135.33,1.94,80,75,3.09,US,2023-04-01 15:46:07
414,ostrovnoy,68.0531,39.5131,-3.82,86,49,4.78,RU,2023-04-01 15:49:37
415,smithers,54.7804,-127.1743,-1.82,93,20,2.06,CA,2023-04-01 15:49:37
416,casablanca,33.5928,-7.6192,25.12,64,0,4.12,MA,2023-04-01 15:49:37
417,norman wells,65.282,-126.8329,-12.98,78,100,1.03,CA,2023-04-01 15:49:38
418,roald,62.5833,6.1333,9.51,45,0,4.12,NO,2023-04-01 15:49:38
419,juneau,58.3019,-134.4197,1.79,97,100,3.09,US,2023-04-01 15:45:20
420,eenhana,-17.4667,16.3333,28.78,39,65,0.74,NA,2023-04-01 15:49:38
421,axim,4.8699,-2.2405,29.35,67,30,4.33,GH,2023-04-01 15:49:38
422,santa maria,-29.6842,-53.8069,19.61,42,0,2.06,BR,2023-04-01 15:47:13
423,praya,14.9215,-23.5087,35.3,15,0,10.29,CV,2023-04-01 15:49:39
424,le port,-20.9373,55.2919,27.0,94,30,3.39,RE,2023-04-01 15:49:39
425,roebourne,-20.7833,117.1333,28.19,70,18,3.14,AU,2023-04-01 15:49:39
426,souillac,-20.5167,57.5167,27.21,74,20,3.09,MU,2023-04-01 15:49:39
427,mackay,-21.15,149.2,24.82,84,85,4.08,AU,2023-04-01 15:47:30
428,coquimbo,-29.9533,-71.3436,16.85,94,100,1.54,CL,2023-04-01 15:39:39
429,vila,42.0304,-8.1588,9.49,84,98,2.11,PT,2023-04-01 15:49:40
430,cururupu,-1.8283,-44.8683,24.2,92,100,0.69,BR,2023-04-01 15:49:40
431,opuwo,-18.0607,13.84,28.83,26,44,1.41,NA,2023-04-01 15:49:40
432,springfield,37.2153,-93.2982,8.81,52,0,7.72,US,2023-04-01 15:46:38
433,mpongwe,-13.5091,28.155,18.25,94,100,1.06,ZM,2023-04-01 15:49:41
434,tazovskiy,67.4667,78.7,-0.53,96,100,8.95,RU,2023-04-01 15:49:41
435,richards bay,-28.783,32.0377,22.47,86,46,1.9,ZA,2023-04-01 15:49:41
436,nandigama,16.7833,80.3,27.65,70,25,4.22,IN,2023-04-01 15:49:42
437,havelock,34.8791,-76.9013,24.43,82,40,12.86,US,2023-04-01 15:49:42
438,zyryanka,65.75,150.85,-18.93,96,100,4.36,RU,2023-04-01 15:49:42
439,thinadhoo,0.5333,72.9333,28.05,73,99,1.71,MV,2023-04-01 15:49:42
440,melfi,40.9965,15.6514,17.31,66,98,4.06,IT,2023-04-01 15:49:42
441,cap malheureux,-19.9842,57.6142,26.93,72,8,0.89,MU,2023-04-01 15:49:42
442,rorvik,64.8621,11.2373,4.99,60,24,3.6,NO,2023-04-01 15:49:43
443,bluefield,37.2698,-81.2223,18.97,48,20,9.77,US,2023-04-01 15:49:43
444,karangampel,-6.4622,108.4519,26.3,81,98,1.09,ID,2023-04-01 15:49:43
445,antipovka,49.8299,45.3122,10.03,49,100,1.4,RU,2023-04-01 15:49:43
446,adrar,20.5022,-10.0711,35.68,4,0,6.1,MR,2023-04-01 15:49:43
447,luorong,24.4058,109.6086,22.5,87,71,1.16,CN,2023-04-01 15:49:43
448,san juan,-31.5375,-68.5364,23.05,30,44,4.11,AR,2023-04-01 15:41:46
449,lodja,-3.4833,23.4333,24.49,75,93,0.28,CD,2023-04-01 15:49:44
450,sobolevo,54.4299,31.8996,6.8,95,100,3.08,RU,2023-04-01 15:49:44
451,tulle,45.3333,1.8333,5.55,97,90,3.95,FR,2023-04-01 15:49:44
452,maceio,-9.6658,-35.7353,30.69,62,75,4.63,BR,2023-04-01 15:40:05
453,talaya,61.3833,152.75,-12.49,96,93,1.82,RU,2023-04-01 15:49:44
454,coihaique,-45.5752,-72.0662,13.34,62,75,4.63,CL,2023-04-01 15:49:45
455,kavieng,-2.5744,150.7967,26.89,82,100,4.99,PG,2023-04-01 15:49:45
456,dunedin,-45.8742,170.5036,17.67,52,67,3.59,NZ,2023-04-01 15:49:45
457,brae,60.3964,-1.353,7.27,75,100,4.64,GB,2023-04-01 15:49:45
458,saint-leu,-21.15,55.2833,26.48,95,24,2.62,RE,2023-04-01 15:42:19
459,poum,-20.2333,164.0167,25.63,79,14,2.64,NC,2023-04-01 15:49:46
460,bonavista,48.6499,-53.1147,0.13,85,40,2.51,CA,2023-04-01 15:49:46
461,vila franca do campo,37.7167,-25.4333,19.23,69,100,4.84,PT,2023-04-01 15:49:46
462,soderhamn,61.3037,17.0592,3.86,63,4,1.84,SE,2023-04-01 15:49:46
463,rome,34.257,-85.1647,23.54,64,0,4.63,US,2023-04-01 15:41:50
464,idukki,9.85,76.9667,21.29,92,55,0.17,IN,2023-04-01 15:49:46
465,pangai,-19.8,-174.35,26.74,78,26,7.1,TO,2023-04-01 15:49:47
466,valenca,-13.3703,-39.0731,29.89,58,46,2.85,BR,2023-04-01 15:49:47
467,kumburgaz,41.0211,28.4772,19.84,75,100,7.98,TR,2023-04-01 15:49:47
468,alyangula,-13.8483,136.4192,27.45,74,94,2.22,AU,2023-04-01 15:49:47
469,saint-georges,12.0564,-61.7485,28.82,70,40,9.77,GD,2023-04-01 15:49:47
470,bumba,2.1833,22.4667,29.02,52,84,1.8,CD,2023-04-01 15:49:48
471,mayumba,-3.432,10.6554,25.58,82,100,1.78,GA,2023-04-01 15:49:48
472,hoshcha,50.6003,26.6744,8.84,86,78,2.63,UA,2023-04-01 15:49:48
473,myitkyina,25.3833,97.4,18.14,92,99,1.01,MM,2023-04-01 15:49:48
474,polis,35.0367,32.4264,16.9,79,91,4.25,CY,2023-04-01 15:49:48
475,paamiut,61.994,-49.6678,-4.34,50,99,3.68,GL,2023-04-01 15:49:49
476,oussouye,12.485,-16.5469,38.1,36,13,6.32,SN,2023-04-01 15:49:49
477,warrington,53.3925,-2.5802,11.0,74,75,6.17,GB,2023-04-01 15:49:49
478,kalmar,56.6616,16.3616,3.97,65,6,8.23,SE,2023-04-01 15:49:49
479,black river,18.0264,-77.8487,28.84,57,19,4.44,JM,2023-04-01 15:49:49
480,calvia,39.5657,2.5062,19.49,59,50,4.26,ES,2023-04-01 15:49:50
481,tsiroanomandidy,-18.7667,46.0333,22.2,78,100,0.79,MG,2023-04-01 15:49:50
482,bilma,18.6853,12.9164,31.11,4,84,3.3,NE,2023-04-01 15:49:50
483,port-gentil,-0.7193,8.7815,25.98,94,40,3.6,GA,2023-04-01 15:37:06
484,kiknur,57.3034,47.2011,2.25,85,49,4.28,RU,2023-04-01 15:49:50
485,takab,36.4009,47.1133,-0.75,67,84,4.8,IR,2023-04-01 15:49:51
486,namibe,-15.1961,12.1522,25.59,76,79,4.78,AO,2023-04-01 15:49:51
487,iturama,-19.7281,-50.1956,28.11,63,43,1.97,BR,2023-04-01 15:49:37
488,fare,-16.7,-151.0167,27.71,75,37,3.19,PF,2023-04-01 15:49:51
489,uong bi,21.0333,106.7833,21.99,98,82,2.14,VN,2023-04-01 15:49:51
490,aksarka,66.5606,67.7975,1.25,99,100,7.54,RU,2023-04-01 15:49:52
491,rawson,-43.3002,-65.1023,24.38,28,79,10.33,AR,2023-04-01 15:49:52
492,nelson bay,-32.7167,152.15,16.67,95,52,3.13,AU,2023-04-01 15:49:52
493,te anau,-45.4167,167.7167,11.2,96,37,1.32,NZ,2023-04-01 15:49:52
494,burley,42.5357,-113.7928,6.83,49,100,2.57,US,2023-04-01 15:49:41
495,nemuro,43.3236,145.575,0.89,87,29,8.81,JP,2023-04-01 15:49:53
496,luganville,-15.5333,167.1667,25.82,87,70,0.8,VU,2023-04-01 15:49:53
497,villiers,-27.0303,28.6006,19.14,45,86,0.35,ZA,2023-04-01 15:49:53
498,moctezuma,29.8,-109.6667,20.18,14,1,1.32,MX,2023-04-01 15:44:15
499,ridgecrest,35.6225,-117.6709,11.47,46,0,2.06,US,2023-04-01 15:49:53
500,codrington,-38.2667,141.9667,10.42,75,17,1.04,AU,2023-04-01 15:49:54
501,sidi ali,36.0998,0.4206,18.13,64,100,2.19,DZ,2023-04-01 15:49:54
502,alamogordo,32.8995,-105.9603,18.09,17,68,2.27,US,2023-04-01 15:49:54
503,yarmouth,41.7057,-70.2286,12.26,98,100,10.29,US,2023-04-01 15:49:54
504,sisimiut,66.9395,-53.6735,-10.04,62,1,3.66,GL,2023-04-01 15:49:54
505,belaya gora,68.5333,146.4167,-30.91,100,92,1.96,RU,2023-04-01 15:49:54
506,haines junction,60.7522,-137.5108,-4.03,74,100,5.14,CA,2023-04-01 15:49:55
507,los llanos de aridane,28.6585,-17.9182,21.86,57,0,6.17,ES,2023-04-01 15:49:55
508,preobrazheniye,42.9019,133.9064,2.58,69,69,1.82,RU,2023-04-01 15:49:55
509,maarianhamina,60.0973,19.9348,0.92,64,0,6.69,AX,2023-04-01 15:49:55
510,dawei,14.0833,98.2,24.41,90,80,0.82,MM,2023-04-01 15:49:55
511,tecozautla,20.5333,-99.6333,23.15,47,3,1.93,MX,2023-04-01 15:49:56
512,andenes,69.3143,16.1194,0.52,59,75,9.26,NO,2023-04-01 15:49:56
513,muroto,33.2833,134.15,16.63,64,98,4.93,JP,2023-04-01 15:49:57
514,hongjiang,27.11,109.9956,20.58,78,100,1.25,CN,2023-04-01 15:49:57
515,loreto,22.2667,-101.9667,22.34,34,34,2.89,MX,2023-04-01 15:48:53
516,lakselv,70.0513,24.9718,-3.1,80,100,11.32,NO,2023-04-01 15:49:57
517,anito,12.4497,125.2886,25.07,87,41,1.34,PH,2023-04-01 15:49:57
518,at-bashi,41.1702,75.8106,-0.26,47,8,2.15,KG,2023-04-01 15:49:58
519,inhambane,-23.865,35.3833,24.05,82,15,3.19,MZ,2023-04-01 15:49:58
520,kanigiri,15.4,79.5167,28.13,72,53,4.46,IN,2023-04-01 15:49:59
521,poltavka,54.3663,71.7632,-3.85,75,74,4.3,RU,2023-04-01 15:49:59
522,biak,-0.9131,122.8766,24.27,77,100,1.69,ID,2023-04-01 15:49:59
523,grand gaube,-20.0064,57.6608,27.22,72,10,0.89,MU,2023-04-01 15:49:59
524,presidencia roque saenz pena,-26.7852,-60.4388,28.52,47,22,2.9,AR,2023-04-01 15:49:59
525,arroyo,41.6096,-4.7969,17.0,55,75,8.75,ES,2023-04-01 15:49:59
526,jiuquan,39.7432,98.5174,6.04,32,100,3.71,CN,2023-04-01 15:50:00
527,zhuhai,22.2769,113.5678,21.88,94,40,2.57,CN,2023-04-01 15:50:00
528,aguas belas,-9.1114,-37.1231,32.45,33,23,2.85,BR,2023-04-01 15:47:05
529,poronaysk,49.2167,143.1167,-4.11,94,68,1.05,RU,2023-04-01 15:50:01
530,marzuq,14.4,46.4667,24.16,65,100,3.78,YE,2023-04-01 15:50:01
531,gornozavodsk,58.3758,58.3211,1.72,97,100,4.54,RU,2023-04-01 15:50:01
532,the valley,18.217,-63.0578,27.28,65,40,8.23,AI,2023-04-01 15:50:02
533,nador,35.174,-2.9287,26.04,46,0,9.26,MA,2023-04-01 15:50:02
534,buje,45.41,13.6619,15.85,67,20,3.09,HR,2023-04-01 15:50:03
535,kismayo,-0.3582,42.5454,28.17,77,5,7.52,SO,2023-04-01 15:50:03
536,wagar,16.1525,36.2032,31.42,14,97,3.0,SD,2023-04-01 15:50:03
537,constitucion,-35.3333,-72.4167,21.48,39,90,6.42,CL,2023-04-01 15:50:04
538,aswan,24.0934,32.907,27.61,14,0,3.09,EG,2023-04-01 15:50:04
539,tambopata,-12.7333,-69.1833,26.94,78,75,1.54,PE,2023-04-01 15:50:04
540,kholm,59.2667,32.85,1.36,99,100,2.23,RU,2023-04-01 15:50:05
541,altay,47.8667,88.1167,-7.62,50,98,4.17,CN,2023-04-01 15:50:05
542,tula,54.2044,37.6111,3.51,99,100,3.39,RU,2023-04-01 15:46:41
543,luanda,-8.8368,13.2343,29.0,70,40,5.14,AO,2023-04-01 15:50:06
544,arlit,18.7369,7.3853,33.39,4,1,6.72,NE,2023-04-01 15:50:06
545,melendugno,40.2747,18.3368,19.75,55,40,3.6,IT,2023-04-01 15:50:06
546,paragould,36.0584,-90.4973,15.9,49,2,10.1,US,2023-04-01 15:50:06
547,cap-chat,49.1001,-66.6821,1.0,64,100,1.54,CA,2023-04-01 15:50:07
548,canto do buriti,-8.11,-42.9444,32.57,32,100,1.8,BR,2023-04-01 15:50:07
549,takoradi,4.8845,-1.7554,29.21,67,22,4.79,GH,2023-04-01 15:50:07
